,Name,City,Country,IATA,Latitude,Longitude
0,Goroka Airport,Goroka,Papua New Guinea,GKA,-6.0816898345900015,145.391998291
1,Madang Airport,Madang,Papua New Guinea,MAG,-5.20707988739,145.789001465
2,Mount Hagen Kagamuga Airport,Mount Hagen,Papua New Guinea,HGU,-5.826789855957031,144.29600524902344
3,Nadzab Airport,Nadzab,Papua New Guinea,LAE,-6.569803,146.725977
4,Port Moresby Jacksons International Airport,Port Moresby,Papua New Guinea,POM,-9.443380355834961,147.22000122070312
5,Wewak International Airport,Wewak,Papua New Guinea,WWK,-3.5838301181800003,143.66900634799998
6,Narsarsuaq Airport,Narssarssuaq,Greenland,UAK,61.1604995728,-45.4259986877
7,Godthaab / Nuuk Airport,Godthaab,Greenland,GOH,64.19090271,-51.67810058590001
8,Kangerlussuaq Airport,Sondrestrom,Greenland,SFJ,67.0122218992,-50.7116031647
9,Thule Air Base,Thule,Greenland,THU,76.5311965942,-68.70320129390001
10,Akureyri Airport,Akureyri,Iceland,AEY,65.66000366210939,-18.07270050048828
11,Egilsstaðir Airport,Egilsstadir,Iceland,EGS,65.28330230712889,-14.401399612426758
12,Hornafjörður Airport,Hofn,Iceland,HFN,64.295601,-15.2272
13,Húsavík Airport,Husavik,Iceland,HZK,65.952301,-17.426001
14,Ísafjörður Airport,Isafjordur,Iceland,IFJ,66.05809783935547,-23.13529968261719
15,Keflavik International Airport,Keflavik,Iceland,KEF,63.985000610352,-22.605600357055998
16,Patreksfjörður Airport,Patreksfjordur,Iceland,PFJ,65.555801,-23.965
17,Reykjavik Airport,Reykjavik,Iceland,RKV,64.1299972534,-21.9405994415
18,Siglufjörður Airport,Siglufjordur,Iceland,SIJ,66.133301,-18.9167
19,Vestmannaeyjar Airport,Vestmannaeyjar,Iceland,VEY,63.42430114746094,-20.27890014648437
20,Sault Ste Marie Airport,Sault Sainte Marie,Canada,YAM,46.48500061035156,-84.5093994140625
23,St. Anthony Airport,St. Anthony,Canada,YAY,51.391899108900006,-56.083099365200006
24,Tofino / Long Beach Airport,Tofino,Canada,YAZ,49.079833,-125.775583
25,Kugaaruk Airport,Pelly Bay,Canada,YBB,68.534401,-89.808098
26,Baie Comeau Airport,Baie Comeau,Canada,YBC,49.13249969482422,-68.20439910888672
27,CFB Bagotville,Bagotville,Canada,YBG,48.33060073852539,-70.99639892578125
28,Baker Lake Airport,Baker Lake,Canada,YBK,64.29889678960001,-96.077796936
29,Campbell River Airport,Campbell River,Canada,YBL,49.95080184936523,-125.27100372314452
30,Brandon Municipal Airport,Brandon,Canada,YBR,49.91,-99.951897
31,Cambridge Bay Airport,Cambridge Bay,Canada,YCB,69.1081008911,-105.13800048799999
32,Nanaimo Airport,Nanaimo,Canada,YCD,49.054970224899996,-123.869862556
33,Castlegar/West Kootenay Regional Airport,Castlegar,Canada,YCG,49.296398162799996,-117.63200378399999
34,Miramichi Airport,Chatham,Canada,YCH,47.007801,-65.449203
35,Charlo Airport,Charlo,Canada,YCL,47.990799,-66.330299
36,Kugluktuk Airport,Coppermine,Canada,YCO,67.816704,-115.143997
37,Coronation Airport,Coronation,Canada,YCT,52.0750007629,-111.444999695
38,Chilliwack Airport,Chilliwack,Canada,YCW,49.1528015137,-121.93900299100001
39,Clyde River Airport,Clyde River,Canada,YCY,70.4860992432,-68.5167007446
40,Coral Harbour Airport,Coral Harbour,Canada,YZS,64.1932983398,-83.3593978882
41,Dawson City Airport,Dawson,Canada,YDA,64.04309844970703,-139.12800598144528
42,Burwash Airport,Burwash,Canada,YDB,61.37110137939453,-139.04100036621094
44,Deer Lake Airport,Deer Lake,Canada,YDF,49.21080017089844,-57.39139938354492
45,Dease Lake Airport,Dease Lake,Canada,YDL,58.4221992493,-130.031997681
46,Dauphin Barker Airport,Dauphin,Canada,YDN,51.10079956054688,-100.052001953125
47,Dawson Creek Airport,Dawson Creek,Canada,YDQ,55.7422981262207,-120.18299865722656
48,Edmonton International Airport,Edmonton,Canada,YEG,53.309700012200004,-113.580001831
49,Arviat Airport,Eskimo Point,Canada,YEK,61.0942001343,-94.0708007812
50,Estevan Airport,Estevan,Canada,YEN,49.210300445600005,-102.96600341799999
51,Edson Airport,Edson,Canada,YET,53.5788993835,-116.46499633799999
52,Eureka Airport,Eureka,Canada,YEU,79.9946975708,-85.814201355
53,Inuvik Mike Zubko Airport,Inuvik,Canada,YEV,68.30419921880001,-133.483001709
54,Iqaluit Airport,Iqaluit,Canada,YFB,63.756402,-68.555801
55,Fredericton Airport,Fredericton,Canada,YFC,45.86890029907226,-66.53720092773439
56,Forestville Airport,Forestville,Canada,YFE,48.74610137939453,-69.09719848632811
57,Flin Flon Airport,Flin Flon,Canada,YFO,54.6781005859375,-101.68199920654295
58,Fort Resolution Airport,Fort Resolution,Canada,YFR,61.1808013916,-113.690002441
59,Fort Simpson Airport,Fort Simpson,Canada,YFS,61.76020050048828,-121.23699951171876
60,Kingston Norman Rogers Airport,Kingston,Canada,YGK,44.22529983520508,-76.5969009399414
61,La Grande Rivière Airport,La Grande Riviere,Canada,YGL,53.62530136108398,-77.7042007446289
62,Gaspé (Michel-Pouliot) Airport,Gaspe,Canada,YGP,48.775299072299994,-64.4785995483
63,Geraldton Greenstone Regional Airport,Geraldton,Canada,YGQ,49.77830123901367,-86.93939971923828
64,Îles-de-la-Madeleine Airport,Iles De La Madeleine,Canada,YGR,47.42470169067383,-61.778099060058594
65,Hudson Bay Airport,Hudson Bay,Canada,YHB,52.8166999817,-102.31099700899999
66,Dryden Regional Airport,Dryden,Canada,YHD,49.831699,-92.744202
67,Ulukhaktok Holman Airport,Holman Island,Canada,YHI,70.76280212402344,-117.80599975585938
68,Gjoa Haven Airport,Gjoa Haven,Canada,YHK,68.635597229,-95.8497009277
69,John C. Munro Hamilton International Airport,Hamilton,Canada,YHM,43.173599243199995,-79.93499755859999
70,Montréal / Saint-Hubert Airport,Montreal,Canada,YHU,45.5175018311,-73.4169006348
71,Hay River / Merlyn Carter Airport,Hay River,Canada,YHY,60.8396987915,-115.782997131
72,Halifax / Stanfield International Airport,Halifax,Canada,YHZ,44.880798339799995,-63.50859832760001
73,Atikokan Municipal Airport,Atikokan,Canada,YIB,48.7738990784,-91.6386032104
74,Pond Inlet Airport,Pond Inlet,Canada,YIO,72.6832962036,-77.9666976929
75,St Jean Airport,St. Jean,Canada,YJN,45.29439926147461,-73.28109741210938
76,Stephenville Airport,Stephenville,Canada,YJT,48.5442008972168,-58.54999923706055
77,Kamloops Airport,Kamloops,Canada,YKA,50.702201843299996,-120.444000244
78,Waterloo Airport,Waterloo,Canada,YKF,43.4608001709,-80.3786010742
79,Schefferville Airport,Schefferville,Canada,YKL,54.80530166625977,-66.8052978515625
80,Kindersley Airport,Kindersley,Canada,YKY,51.5175018311,-109.180999756
81,Buttonville Municipal Airport,Toronto,Canada,YKZ,43.86220169067383,-79.37000274658203
82,Chapleau Airport,Chapleau,Canada,YLD,47.81999969482422,-83.3467025756836
83,Meadow Lake Airport,Meadow Lake,Canada,YLJ,54.12530136108398,-108.52300262451172
84,Lloydminster Airport,Lloydminster,Canada,YLL,53.30920028686523,-110.072998046875
85,Alert Airport,Alert,Canada,YLT,82.51779937740001,-62.280601501499994
86,Kelowna International Airport,Kelowna,Canada,YLW,49.9561004639,-119.377998352
87,Mayo Airport,Mayo,Canada,YMA,63.61640167236328,-135.86799621582028
88,Moose Jaw Air Vice Marshal C. M. McEwen Airport,Moose Jaw,Canada,YMJ,50.330299377441406,-105.55899810791016
89,Fort McMurray Airport,Fort Mcmurray,Canada,YMM,56.653301238999994,-111.22200012200001
90,Moosonee Airport,Moosonee,Canada,YMO,51.291099548339844,-80.60780334472656
91,Maniwaki Airport,Maniwaki,Canada,YMW,46.272800445600005,-75.9906005859
92,Montreal International (Mirabel) Airport,Montreal,Canada,YMX,45.679501,-74.038696
93,Natashquan Airport,Natashquan,Canada,YNA,50.18999862670898,-61.78919982910156
94,Ottawa / Gatineau Airport,Gatineau,Canada,YND,45.5217018127,-75.5635986328
95,Matagami Airport,Matagami,Canada,YNM,49.76169967651367,-77.80280303955078
96,Old Crow Airport,Old Crow,Canada,YOC,67.57060241699219,-139.83900451660156
97,CFB Cold Lake,Cold Lake,Canada,YOD,54.40499877929688,-110.27899932861328
98,High Level Airport,High Level,Canada,YOJ,58.62139892578125,-117.16500091552734
99,Ottawa Macdonald-Cartier International Airport,Ottawa,Canada,YOW,45.3224983215332,-75.66919708251953
100,Prince Albert Glass Field,Prince Albert,Canada,YPA,53.214199066199996,-105.672996521
101,Peace River Airport,Peace River,Canada,YPE,56.226898,-117.446999
102,Southport Airport,Portage-la-prairie,Canada,YPG,49.903099,-98.273817
104,Pickle Lake Airport,Pickle Lake,Canada,YPL,51.4463996887207,-90.21420288085938
105,Port Menier Airport,Port Menier,Canada,YPN,49.83639907836914,-64.28859710693361
106,Peterborough Airport,Peterborough,Canada,YPQ,44.22999954223633,-78.36329650878906
107,Prince Rupert Airport,Prince Pupert,Canada,YPR,54.2860984802,-130.445007324
108,Fort Chipewyan Airport,Fort Chipewyan,Canada,YPY,58.7672004699707,-111.11699676513672
109,Muskoka Airport,Muskoka,Canada,YQA,44.974700927734375,-79.30329895019531
110,Quebec Jean Lesage International Airport,Quebec,Canada,YQB,46.7911,-71.393303
111,Red Deer Regional Airport,Red Deer Industrial,Canada,YQF,52.18220138549805,-113.8939971923828
112,Windsor Airport,Windsor,Canada,YQG,42.27560043334961,-82.95559692382812
113,Watson Lake Airport,Watson Lake,Canada,YQH,60.11640167236328,-128.82200622558594
114,Kenora Airport,Kenora,Canada,YQK,49.78829956054688,-94.36309814453124
115,Lethbridge County Airport,Lethbridge,Canada,YQL,49.6302986145,-112.80000305200001
116,Greater Moncton International Airport,Moncton,Canada,YQM,46.11220169067383,-64.67859649658203
117,Comox Airport,Comox,Canada,YQQ,49.71080017089844,-124.88700103759766
118,Regina International Airport,Regina,Canada,YQR,50.43190002441406,-104.66600036621094
119,Thunder Bay Airport,Thunder Bay,Canada,YQT,48.37189865112305,-89.32389831542969
120,Grande Prairie Airport,Grande Prairie,Canada,YQU,55.1796989441,-118.885002136
121,Yorkton Municipal Airport,Yorkton,Canada,YQV,51.26470184326172,-102.46199798583984
122,North Battleford Airport,North Battleford,Canada,YQW,52.76919937133789,-108.24400329589844
123,Gander International Airport,Gander,Canada,YQX,48.9369010925293,-54.56809997558594
124,Sydney / J.A. Douglas McCurdy Airport,Sydney,Canada,YQY,46.1614,-60.047798
125,Quesnel Airport,Quesnel,Canada,YQZ,53.026100158691406,-122.51000213623048
126,Resolute Bay Airport,Resolute,Canada,YRB,74.71690368649999,-94.9693984985
127,Rivière-du-Loup Airport,Riviere Du Loup,Canada,YRI,47.76440048217773,-69.58470153808594
128,Roberval Airport,Roberval,Canada,YRJ,48.52000045776367,-72.2656021118164
129,Rocky Mountain House Airport,Rocky Mountain House,Canada,YRM,52.4296989441,-114.903999329
130,Rankin Inlet Airport,Rankin Inlet,Canada,YRT,62.81140136720001,-92.1157989502
131,Sudbury Airport,Sudbury,Canada,YSB,46.625,-80.79889678955078
132,Sherbrooke Airport,Sherbrooke,Canada,YSC,45.4385986328125,-71.69139862060547
133,Saint John Airport,St. John,Canada,YSJ,45.31610107421875,-65.89029693603516
134,Fort Smith Airport,Fort Smith,Canada,YSM,60.020301818847656,-111.96199798583984
135,Nanisivik Airport,Nanisivik,Canada,YSR,72.982201,-84.613602
136,Summerside Airport,Summerside,Canada,YSU,46.44060134887695,-63.83359909057617
137,Sachs Harbour (David Nasogaluak Jr. Saaryuaq) Airport,Sachs Harbour,Canada,YSY,71.9938964844,-125.24299621600001
138,Cape Dorset Airport,Cape Dorset,Canada,YTE,64.2300033569,-76.5267028809
139,Thompson Airport,Thompson,Canada,YTH,55.80110168457031,-97.86419677734376
140,CFB Trenton,Trenton,Canada,YTR,44.118900299072266,-77.5280990600586
141,Timmins/Victor M. Power,Timmins,Canada,YTS,48.569698333699996,-81.376701355
142,Billy Bishop Toronto City Centre Airport,Toronto,Canada,YTZ,43.627499,-79.396202
143,Tuktoyaktuk Airport,Tuktoyaktuk,Canada,YUB,69.43329620361328,-133.0260009765625
144,Montreal / Pierre Elliott Trudeau International Airport,Montreal,Canada,YUL,45.4706001282,-73.7407989502
145,Repulse Bay Airport,Repulse Bay,Canada,YUT,66.5214004517,-86.22470092770003
146,Hall Beach Airport,Hall Beach,Canada,YUX,68.77610015869999,-81.2425
147,Rouyn Noranda Airport,Rouyn,Canada,YUY,48.20610046386719,-78.83560180664062
148,La Ronge Airport,La Ronge,Canada,YVC,55.1514015198,-105.262001038
149,Vermilion Airport,Vermillion,Canada,YVG,53.355800628699996,-110.823997498
150,Qikiqtarjuaq Airport,Broughton Island,Canada,YVM,67.5457992554,-64.03140258789999
151,Val-d'Or Airport,Val D'or,Canada,YVO,48.0532989502,-77.7827987671
152,Kuujjuaq Airport,Quujjuaq,Canada,YVP,58.09609985351562,-68.42690277099611
153,Norman Wells Airport,Norman Wells,Canada,YVQ,65.28160095214844,-126.7979965209961
154,Vancouver International Airport,Vancouver,Canada,YVR,49.193901061999995,-123.183998108
155,Buffalo Narrows Airport,Buffalo Narrows,Canada,YVT,55.8418998718,-108.41799926799999
156,Wiarton Airport,Wiarton,Canada,YVV,44.7458,-81.107201
157,Petawawa Airport,Petawawa,Canada,YWA,45.95220184326172,-77.31919860839844
158,Winnipeg / James Armstrong Richardson International Airport,Winnipeg,Canada,YWG,49.909999847399995,-97.2398986816
159,Wabush Airport,Wabush,Canada,YWK,52.92190170288086,-66.86440277099611
160,Williams Lake Airport,Williams Lake,Canada,YWL,52.1831016541,-122.054000854
161,Wrigley Airport,Wrigley,Canada,YWY,63.20940017700195,-123.43699645996094
162,Cranbrook/Canadian Rockies International Airport,Cranbrook,Canada,YXC,49.610801696777,-115.78199768066
163,Edmonton City Centre (Blatchford Field) Airport,Edmonton,Canada,YXD,53.5724983215,-113.52100372299999
164,Saskatoon John G. Diefenbaker International Airport,Saskatoon,Canada,YXE,52.170799255371094,-106.6999969482422
165,Medicine Hat Airport,Medicine Hat,Canada,YXH,50.01890182495117,-110.72100067138672
166,Fort St John Airport,Fort Saint John,Canada,YXJ,56.23809814453125,-120.73999786376952
167,Sioux Lookout Airport,Sioux Lookout,Canada,YXL,50.11389923095703,-91.9052963256836
168,Pangnirtung Airport,Pangnirtung,Canada,YXP,66.1449966431,-65.71360015869999
169,Earlton (Timiskaming Regional) Airport,Earlton,Canada,YXR,47.6974006546,-79.84734535220001
170,Prince George Airport,Prince George,Canada,YXS,53.8894004822,-122.679000854
171,Northwest Regional Airport Terrace-Kitimat,Terrace,Canada,YXT,54.468498,-128.576009
172,London Airport,London,Canada,YXU,43.035599,-81.1539
173,Abbotsford Airport,Abbotsford,Canada,YXX,49.02529907226562,-122.36100006103516
174,Whitehorse / Erik Nielsen International Airport,Whitehorse,Canada,YXY,60.709598541300004,-135.067001343
175,North Bay Jack Garland Airport,North Bay,Canada,YYB,46.363602,-79.422798
176,Calgary International Airport,Calgary,Canada,YYC,51.113899231000005,-114.019996643
177,Smithers Airport,Smithers,Canada,YYD,54.82469940185547,-127.18299865722656
178,Fort Nelson Airport,Fort Nelson,Canada,YYE,58.8363990784,-122.59700012200001
179,Penticton Airport,Penticton,Canada,YYF,49.46310043334961,-119.60199737548828
180,Charlottetown Airport,Charlottetown,Canada,YYG,46.290000915527344,-63.12110137939453
181,Taloyoak Airport,Spence Bay,Canada,YYH,69.5466995239,-93.57669830319999
182,Victoria International Airport,Victoria,Canada,YYJ,48.646900177,-123.426002502
183,Lynn Lake Airport,Lynn Lake,Canada,YYL,56.86389923095703,-101.07599639892578
184,Swift Current Airport,Swift Current,Canada,YYN,50.291900634799994,-107.691001892
185,Churchill Airport,Churchill,Canada,YYQ,58.73920059204102,-94.06500244140624
186,Goose Bay Airport,Goose Bay,Canada,YYR,53.3191986084,-60.425800323500006
187,St. John's International Airport,St. John's,Canada,YYT,47.61859893800001,-52.751899719200004
188,Kapuskasing Airport,Kapuskasing,Canada,YYU,49.41389846801758,-82.46749877929688
189,Armstrong Airport,Armstrong,Canada,YYW,50.29029846191406,-88.90969848632812
190,Mont Joli Airport,Mont Joli,Canada,YYY,48.60860061645508,-68.20809936523439
191,Lester B. Pearson International Airport,Toronto,Canada,YYZ,43.6772003174,-79.63059997559999
192,Downsview Airport,Toronto,Canada,YZD,43.74250030517578,-79.4655990600586
193,Gore Bay Manitoulin Airport,Gore Bay,Canada,YZE,45.88529968261719,-82.56780242919922
194,Yellowknife Airport,Yellowknife,Canada,YZF,62.46279907226562,-114.44000244140624
195,Slave Lake Airport,Slave Lake,Canada,YZH,55.293098449700004,-114.777000427
196,Sandspit Airport,Sandspit,Canada,YZP,53.25429916379999,-131.813995361
197,Chris Hadfield Airport,Sarnia,Canada,YZR,42.9994010925293,-82.30889892578125
198,Port Hardy Airport,Port Hardy,Canada,YZT,50.68059921264648,-127.36699676513672
199,Whitecourt Airport,Whitecourt,Canada,YZU,54.14390182495117,-115.78700256347656
200,Sept-Îles Airport,Sept-iles,Canada,YZV,50.22330093383789,-66.26560211181639
201,Teslin Airport,Teslin,Canada,YZW,60.17279815673828,-132.74299621582028
202,CFB Greenwood,Greenwood,Canada,YZX,44.98440170288086,-64.91690063476561
203,Faro Airport,Faro,Canada,ZFA,62.20750045776367,-133.37600708007812
204,Fort Mcpherson Airport,Fort Mcpherson,Canada,ZFM,67.40750122070311,-134.86099243164062
205,Blida Airport,Blida,Algeria,QLD,36.50360107421875,2.8141698837280287
206,Bou Saada Airport,Bou Saada,Algeria,BUJ,35.33250045776367,4.206389904022217
207,Soummam Airport,Bejaja,Algeria,BJA,36.712001800500005,5.0699200630200005
208,Houari Boumediene Airport,Algier,Algeria,ALG,36.691001892089844,3.215409994125366
209,Djanet Inedbirene Airport,Djanet,Algeria,DJG,24.292801,9.45244
212,Illizi Takhamalt Airport,Illizi,Algeria,VVZ,26.7234992981,8.62265014648
214,Aguenar – Hadj Bey Akhamok Airport,Tamanrasset,Algeria,TMR,22.8115005493,5.45107984543
215,Jijel Ferhat Abbas Airport,Jijel,Algeria,GJL,36.7951011658,5.873610019680001
216,Mecheria Airport,Mecheria,Algeria,MZW,33.535900116,-0.242353007197
218,Rabah Bitat Airport,Annaba,Algeria,AAE,36.822201,7.809174
219,Mohamed Boudiaf International Airport,Constantine,Algeria,CZL,36.2760009765625,6.620389938354492
220,Cheikh Larbi Tébessi Airport,Tebessa,Algeria,TEE,35.4315986633,8.120719909670001
221,Hassi R'Mel Airport,Tilrempt,Algeria,HRM,32.93040084838867,3.311539888381958
222,Bou Chekif Airport,Tiaret,Algeria,TID,35.3410987854,1.4631500244100002
224,Tindouf Airport,Tindouf,Algeria,TIN,27.700399398800002,-8.167099952700001
225,Ech Cheliff Airport,Ech-cheliff,Algeria,CFK,36.212699890100005,1.33176994324
226,Tafaraoui Airport,Oran,Algeria,TAF,35.54240036010742,-0.5322780013084412
227,Zenata – Messali El Hadj Airport,Tlemcen,Algeria,TLM,35.0167007446,-1.45000004768
228,Es Senia Airport,Oran,Algeria,ORN,35.6239013672,-0.6211829781529999
229,Sidi Bel Abbes Airport,Sidi Bel Abbes,Algeria,BFW,35.1717987061,-0.593275010586
230,Ghriss Airport,Ghriss,Algeria,MUW,35.207698822021484,0.14714199304580688
231,Touat Cheikh Sidi Mohamed Belkebir Airport,Adrar,Algeria,AZR,27.83760070800781,-0.1864140033721924
232,Biskra Airport,Biskra,Algeria,BSK,34.793300628699996,5.73823022842
233,El Golea Airport,El Golea,Algeria,ELG,30.5713005065918,2.8595900535583496
234,Noumérat - Moufdi Zakaria Airport,Ghardaia,Algeria,GHA,32.38410186767578,3.794110059738159
235,Oued Irara Airport,Hassi Messaoud,Algeria,HME,31.673000335700003,6.140439987180001
236,In Salah Airport,In Salah,Algeria,INZ,27.2509994507,2.51202011108
237,Touggourt Sidi Madhi Airport,Touggourt,Algeria,TGR,33.067798614501946,6.088669776916504
238,Laghouat Airport,Laghouat,Algeria,LOO,33.764400482199996,2.92833995819
239,Timimoun Airport,Timimoun,Algeria,TMX,29.237100601199998,0.276033014059
240,Ain el Beida Airport,Ouargla,Algeria,OGX,31.917200088500977,5.412779808044434
241,In Aménas Airport,Zarzaitine,Algeria,IAM,28.0515,9.64291
242,Cadjehoun Airport,Cotonou,Benin,COO,6.357230186462402,2.384350061416626
243,Ouagadougou Airport,Ouagadougou,Burkina Faso,OUA,12.3532,-1.51242
244,Bobo Dioulasso Airport,Bobo-dioulasso,Burkina Faso,BOY,11.160099983215332,-4.33096981048584
245,Kotoka International Airport,Accra,Ghana,ACC,5.605189800262451,-0.16678600013256073
246,Tamale Airport,Tamale,Ghana,TML,9.55718994140625,-0.8632140159606934
248,Sunyani Airport,Sunyani,Ghana,NYI,7.361830234527588,-2.3287599086761475
249,Takoradi Airport,Takoradi,Ghana,TKD,4.896059989929199,-1.7747600078582764
250,Port Bouet Airport,Abidjan,Cote d'Ivoire,ABJ,5.261390209197998,-3.9262900352478014
251,Bouaké Airport,Bouake,Cote d'Ivoire,BYK,7.738800048828125,-5.073669910430908
252,Daloa Airport,Daloa,Cote d'Ivoire,DJO,6.7928099632263175,-6.473189830780027
253,Korhogo Airport,Korhogo,Cote d'Ivoire,HGO,9.38718032837,-5.556660175319999
254,Man Airport,Man,Cote d'Ivoire,MJC,7.272069931030272,-7.58735990524292
255,San Pedro Airport,San Pedro,Cote d'Ivoire,SPY,4.746719837188722,-6.660820007324219
256,Yamoussoukro Airport,Yamoussoukro,Cote d'Ivoire,ASK,6.9031701088,-5.36558008194
257,Nnamdi Azikiwe International Airport,Abuja,Nigeria,ABV,9.006790161132812,7.263169765472412
258,Akure Airport,Akure,Nigeria,AKR,7.246739864349365,5.3010101318359375
259,Benin Airport,Benin,Nigeria,BNI,6.3169798851013175,5.5995001792907715
260,Margaret Ekpo International Airport,Calabar,Nigeria,CBQ,4.976019859313965,8.347200393676758
261,Akanu Ibiam International Airport,Enugu,Nigeria,ENU,6.474269866943359,7.561960220336914
263,Ibadan Airport,Ibadan,Nigeria,IBA,7.362460136413574,3.97832989692688
264,Ilorin International Airport,Ilorin,Nigeria,ILR,8.440210342407228,4.493919849395752
265,Yakubu Gowon Airport,Jos,Nigeria,JOS,9.639829635620117,8.869050025939941
266,Kaduna Airport,Kaduna,Nigeria,KAD,10.696000099182127,7.320109844207764
267,Mallam Aminu International Airport,Kano,Nigeria,KAN,12.0476,8.52462
268,Maiduguri International Airport,Maiduguri,Nigeria,MIU,11.855299949645994,13.080900192260742
269,Makurdi Airport,Makurdi,Nigeria,MDI,7.703880000000002,8.61394
270,Murtala Muhammed International Airport,Lagos,Nigeria,LOS,6.5773701667785645,3.321160078048706
271,Minna Airport,Minna,Nigeria,MXJ,9.652170181274414,6.462259769439697
272,Port Harcourt International Airport,Port Hartcourt,Nigeria,PHC,5.0154900550842285,6.94959020614624
273,Sadiq Abubakar III International Airport,Sokoto,Nigeria,SKO,12.916299819946287,5.207190036773682
274,Yola Airport,Yola,Nigeria,YOL,9.257550239562988,12.430399894714355
275,Zaria Airport,Zaria,Nigeria,ZAR,11.1302,7.685810000000001
276,Maradi Airport,Maradi,Niger,MFQ,13.5024995803833,7.1267499923706055
277,Diori Hamani International Airport,Niamey,Niger,NIM,13.4815,2.18361
278,Tahoua Airport,Tahoua,Niger,THZ,14.875699996948242,5.265359878540039
279,Mano Dayak International Airport,Agadez,Niger,AJY,16.965999603271484,8.000109672546388
282,Zinder Airport,Zinder,Niger,ZND,13.779000282287598,8.983759880065918
283,Monastir Habib Bourguiba International Airport,Monastir,Tunisia,MIR,35.75809860229492,10.75469970703125
284,Tunis Carthage International Airport,Tunis,Tunisia,TUN,36.85100173950195,10.22719955444336
287,Gafsa Ksar International Airport,Gafsa,Tunisia,GAF,34.42200088500977,8.822500228881836
288,Gabès Matmata International Airport,Gabes,Tunisia,GAE,33.87689971923828,10.103300094604492
290,Djerba Zarzis International Airport,Djerba,Tunisia,DJE,33.875,10.775500297546387
291,El Borma Airport,El Borma,Tunisia,EBM,31.70429992675781,9.254619598388672
292,Sfax Thyna International Airport,Sfax,Tunisia,SFA,34.71799850463867,10.690999984741213
293,Tozeur Nefta International Airport,Tozeur,Tunisia,TOE,33.939701080322266,8.110560417175293
294,Niamtougou International Airport,Niatougou,Togo,LRL,9.767330169677734,1.0912499427795408
295,Lomé-Tokoin Airport,Lome,Togo,LFW,6.165609836578369,1.2545100450515747
296,Antwerp International Airport (Deurne),Antwerp,Belgium,ANR,51.189399719200004,4.46027994156
299,Brussels Airport,Brussels,Belgium,BRU,50.9014015198,4.48443984985
301,Brussels South Charleroi Airport,Charleroi,Belgium,CRL,50.45920200000001,4.45382
305,Wevelgem Airport,Kortrijk-vevelgem,Belgium,KJK,50.817199707,3.2047200202900004
306,Liège Airport,Liege,Belgium,LGG,50.63740158081055,5.443220138549805
307,Ostend-Bruges International Airport,Ostend,Belgium,OST,51.1988983154,2.8622200489
313,Zoersel (Oostmalle) Airfield,Zoersel,Belgium,OBL,51.264702,4.75333
315,Altenburg-Nobitz Airport,Altenburg,Germany,AOC,50.981945,12.506389
321,Riesa-Göhlis Airport,Riesa,Germany,IES,51.293609619099996,13.3561105728
322,Rechlin-Lärz Airport,Rechlin-laerz,Germany,REB,53.306388855,12.7522220612
324,Schönhagen Airport,Schoenhagen,Germany,QXH,52.203609,13.156389
325,Barth Airport,Barth,Germany,BBH,54.338253,12.710515
328,"Magdeburg ""City"" Airport",Magdeburg,Germany,ZMG,52.073612,11.626389
331,Cottbus-Drewitz Airport,Cottbus,Germany,CBU,51.889442,14.531944
333,Berlin-Schönefeld Airport,Berlin,Germany,SXF,52.380001,13.5225
334,Dresden Airport,Dresden,Germany,DRS,51.1328010559082,13.767200469970705
335,Erfurt Airport,Erfurt,Germany,ERF,50.97980117797852,10.958100318908693
336,Frankfurt am Main Airport,Frankfurt,Germany,FRA,50.033333,8.570556
337,Münster Osnabrück Airport,Munster,Germany,FMO,52.134601593,7.68483018875
338,Hamburg Airport,Hamburg,Germany,HAM,53.630401611328004,9.988229751586902
339,Berlin-Tempelhof International Airport,Berlin,Germany,THF,52.472999572753906,13.403900146484375
340,Cologne Bonn Airport,Cologne,Germany,CGN,50.865898132299996,7.1427397728
341,Düsseldorf Airport,Duesseldorf,Germany,DUS,51.289501,6.766780000000002
342,Munich Airport,Munich,Germany,MUC,48.353802,11.7861
343,Nuremberg Airport,Nuernberg,Germany,NUE,49.498699,11.078056
344,Leipzig/Halle Airport,Leipzig,Germany,LEJ,51.423889,12.236389
345,Saarbrücken Airport,Saarbruecken,Germany,SCN,49.2145996094,7.10950994492
346,Stuttgart Airport,Stuttgart,Germany,STR,48.6898994446,9.22196006775
347,Berlin-Tegel Airport,Berlin,Germany,TXL,52.5597,13.2877
348,Hannover Airport,Hannover,Germany,HAJ,52.461101532,9.685079574580001
349,Bremen Airport,Bremen,Germany,BRE,53.0475006104,8.78666973114
350,Frankfurt-Egelsbach Airport,Egelsbach,Germany,QEF,49.959999,8.645833
351,Frankfurt-Hahn Airport,Hahn,Germany,HHN,49.9487,7.263889999999999
352,Mannheim-City Airport,Mannheim,Germany,MHG,49.473057,8.514167
356,Eisenach-Kindel Airport,Eisenach,Germany,EIB,50.991604,10.47973
357,Siegerland Airport,Siegerland,Germany,SGE,50.70769882202149,8.082969665527344
358,Hamburg-Finkenwerder Airport,Hamburg,Germany,XFW,53.5352783203125,9.835556030273438
359,Kiel-Holtenau Airport,Kiel,Germany,KEL,54.37944412231445,10.145277976989746
360,Lübeck Blankensee Airport,Luebeck,Germany,LBC,53.80540084840001,10.7192001343
364,Essen Mulheim Airport,Essen,Germany,ESS,51.40230178833008,6.9373297691345215
365,Bielefeld Airport,Bielefeld,Germany,BFE,51.964722,8.544444
366,Mönchengladbach Airport,Moenchengladbach,Germany,MGL,51.23027800000001,6.504444
367,Paderborn Lippstadt Airport,Paderborn,Germany,PAD,51.614101409899995,8.616319656369999
369,Dortmund Airport,Dortmund,Germany,DTM,51.518299102799986,7.61223983765
370,Augsburg Airport,Augsburg,Germany,AGB,48.42527800000001,10.931667
374,Oberpfaffenhofen Airport,Oberpfaffenhofen,Germany,OBF,48.081402,11.2831
375,Straubing Airport,Straubing,Germany,RBM,48.90083312988281,12.516667366027832
378,Friedrichshafen Airport,Friedrichshafen,Germany,FDH,47.671298980699994,9.511489868160002
379,Schwerin Parchim Airport,Parchim,Germany,SZW,53.426998,11.7834
382,Bayreuth Airport,Bayreuth,Germany,BYU,49.985001,11.64
383,Burg Feuerstein Airport,Burg Feuerstein,Germany,URD,49.794166564940994,11.133610725402999
384,Hof-Plauen Airport,Hof,Germany,HOQ,50.288612365722656,11.856389045715332
389,Zweibrücken Airport,Zweibruecken,Germany,ZQW,49.2094,7.40056
390,Donaueschingen-Villingen Airport,Donaueschingen,Germany,ZQL,47.97333145139999,8.52222156525
395,Braunschweig-Wolfsburg Airport,Braunschweig,Germany,BWE,52.319199,10.5561
396,Kassel-Calden Airport,Kassel,Germany,KSF,51.417273,9.384967
398,Bremerhaven Airport,Bremerhaven,Germany,BRV,53.50694300000001,8.572778
399,Emden Airport,Emden,Germany,EME,53.391109,7.2275
401,Wilhelmshaven-Mariensiel Airport,Wilhelmshaven,Germany,WVN,53.502220153808594,8.05222225189209
402,Borkum Airport,Borkum,Germany,BMK,53.59639,6.709167
403,Norderney Airport,Norderney,Germany,NRD,53.70694351196289,7.230000019073486
404,Flensburg-Schäferhaus Airport,Flensburg,Germany,FLF,54.77333450317383,9.378889083862305
406,Westerland Sylt Airport,Westerland,Germany,GWT,54.9132003784,8.34047031403
408,Kärdla Airport,Kardla,Estonia,KDL,58.99079895019531,22.830699920654297
409,Kuressaare Airport,Kuressaare,Estonia,URE,58.22990036010742,22.50950050354004
410,Pärnu Airport,Parnu,Estonia,EPU,58.41899871826172,24.47279930114746
411,Lennart Meri Tallinn Airport,Tallinn-ulemiste International,Estonia,TLL,59.41329956049999,24.8327999115
412,Tartu Airport,Tartu,Estonia,TAY,58.30749893189999,26.690399169899997
413,Enontekio Airport,Enontekio,Finland,ENF,68.36260223388699,23.424299240112
415,Halli Airport,Halli,Finland,KEV,61.856039,24.786686
416,Helsinki Malmi Airport,Helsinki,Finland,HEM,60.254600524902344,25.04280090332031
417,Helsinki Vantaa Airport,Helsinki,Finland,HEL,60.317199707031,24.963300704956
420,Hyvinkää Airfield,Hyvinkaa,Finland,HYV,60.6543998718,24.881099700900002
423,Kitee Airport,Kitee,Finland,KTQ,62.1661,30.073601
424,Ivalo Airport,Ivalo,Finland,IVL,68.607299804688,27.405300140380998
425,Joensuu Airport,Joensuu,Finland,JOE,62.662899017334006,29.607500076294
426,Jyvaskyla Airport,Jyvaskyla,Finland,JYV,62.399501800537,25.678300857544
427,Kauhava Airport,Kauhava,Finland,KAU,63.127102,23.051399
428,Kemi-Tornio Airport,Kemi,Finland,KEM,65.778701782227,24.582099914551
429,Kajaani Airport,Kajaani,Finland,KAJ,64.285499572754,27.692399978638
430,Kauhajoki Airport,Kauhajoki,Finland,KHJ,62.4625015259,22.3931007385
431,Kokkola-Pietarsaari Airport,Kruunupyy,Finland,KOK,63.721199035645,23.143100738525
433,Kuusamo Airport,Kuusamo,Finland,KAO,65.98760223388699,29.239400863647
434,Kittilä Airport,Kittila,Finland,KTT,67.700996398926,24.846799850464002
435,Kuopio Airport,Kuopio,Finland,KUO,63.007099151611,27.797800064087
436,Lahti Vesivehmaa Airport,Vesivehmaa,Finland,QLF,61.144199,25.693501
437,Lappeenranta Airport,Lappeenranta,Finland,LPP,61.044601,28.144743
438,Mariehamn Airport,Mariehamn,Finland,MHQ,60.122200012207,19.898199081421
440,Mikkeli Airport,Mikkeli,Finland,MIK,61.6866,27.201799
442,Oulu Airport,Oulu,Finland,OUL,64.930099487305,25.354600906372
444,Pori Airport,Pori,Finland,POR,61.46170043945301,21.799999237061
449,Rovaniemi Airport,Rovaniemi,Finland,RVN,66.564796447754,25.830400466919
451,Savonlinna Airport,Savonlinna,Finland,SVL,61.943099975586,28.945100784302
453,Sodankyla Airport,Sodankyla,Finland,SOT,67.3949966431,26.619100570700002
454,Tampere-Pirkkala Airport,Tampere,Finland,TMP,61.414100646973,23.604400634766
456,Turku Airport,Turku,Finland,TKU,60.514099121094,22.262800216675
457,Utti Air Base,Utti,Finland,UTI,60.89640045165999,26.938400268555004
458,Vaasa Airport,Vaasa,Finland,VAA,63.050701141357,21.762199401855
459,Varkaus Airport,Varkaus,Finland,VRK,62.171100616455,27.868600845337
460,Ylivieska Airfield,Ylivieska-raudaskyla,Finland,YLI,64.0547222,24.7252778
461,Belfast International Airport,Belfast,United Kingdom,BFS,54.6575012207,-6.21582984924
462,St Angelo Airport,Enniskillen,United Kingdom,ENK,54.39889907836914,-7.651669979095459
463,George Best Belfast City Airport,Belfast,United Kingdom,BHD,54.61809921264648,-5.872499942779541
464,City of Derry Airport,Londonderry,United Kingdom,LDY,55.04280090332031,-7.161109924316406
465,Birmingham International Airport,Birmingham,United Kingdom,BHX,52.4538993835,-1.7480299472799998
466,Coventry Airport,Coventry,United Kingdom,CVT,52.3697013855,-1.47971999645
468,Gloucestershire Airport,Golouchestershire,United Kingdom,GLO,51.89419937133789,-2.1672201156616206
470,Cotswold Airport,Pailton,United Kingdom,GBA,51.668095,-2.05694
473,Manchester Airport,Manchester,United Kingdom,MAN,53.35369873046875,-2.2749500274658203
476,Newquay Cornwall Airport,Newquai,United Kingdom,NQY,50.44060134887695,-4.995409965515137
477,RAF Lyneham,Lyneham,United Kingdom,LYE,51.5051,-1.99343
481,RNAS Yeovilton,Yeovilton,United Kingdom,YEO,51.0093994140625,-2.638819932937622
482,Haverfordwest Airport,Haverfordwest,United Kingdom,HAW,51.83309936523438,-4.9611101150512695
483,Cardiff International Airport,Cardiff,United Kingdom,CWL,51.39670181274414,-3.343329906463623
484,Swansea Airport,Swansea,United Kingdom,SWS,51.60530090332031,-4.0678300857543945
485,Bristol Airport,Bristol,United Kingdom,BRS,51.382702,-2.71909
486,Liverpool John Lennon Airport,Liverpool,United Kingdom,LPL,53.33359909057617,-2.849720001220703
487,London Luton Airport,London,United Kingdom,LTN,51.87469863891602,-0.36833301186561584
488,Plymouth City Airport,Plymouth,United Kingdom,PLH,50.422798,-4.10583
489,Bournemouth Airport,Bournemouth,United Kingdom,BOH,50.77999877929688,-1.8424999713897705
490,Southampton Airport,Southampton,United Kingdom,SOU,50.95029830932617,-1.3567999601364136
491,Lasham Airport,Lasham,United Kingdom,QLA,51.18719863891602,-1.0334999561309814
492,Alderney Airport,Alderney,Guernsey,ACI,49.706104,-2.21472
493,Guernsey Airport,Guernsey,Guernsey,GCI,49.43500137329102,-2.601969957351685
494,Jersey Airport,Jersey,Jersey,JER,49.20790100097656,-2.195509910583496
495,Shoreham Airport,Shoreham By Sea,United Kingdom,ESH,50.835602,-0.297222
496,London Biggin Hill Airport,Biggin Hill,United Kingdom,BQH,51.330799102799986,0.032499998807900006
497,London Gatwick Airport,London,United Kingdom,LGW,51.148102,-0.190278
498,London City Airport,London,United Kingdom,LCY,51.505299,0.055278
499,Farnborough Airport,Farnborough,United Kingdom,FAB,51.275798797600004,-0.776332974434
501,Blackbushe Airport,Blackbushe,United Kingdom,BBS,51.32389831542969,-0.8475000262260437
502,London Heathrow Airport,London,United Kingdom,LHR,51.4706,-0.461941
503,Southend Airport,Southend,United Kingdom,SEN,51.5713996887207,0.6955559849739075
504,Lydd Airport,Lydd,United Kingdom,LYX,50.95610046386719,0.939167022705078
505,Kent International Airport,Manston,United Kingdom,MSE,51.342201,1.34611
507,Carlisle Airport,Carlisle,United Kingdom,CAX,54.9375,-2.8091700077056885
509,Blackpool International Airport,Blackpool,United Kingdom,BLK,53.77170181274414,-3.0286099910736084
510,Humberside Airport,Humberside,United Kingdom,HUY,53.57440185546875,-0.350832998752594
511,Barrow Walney Island Airport,Barrow Island,United Kingdom,BWF,54.1286111,-3.2675
512,Leeds Bradford Airport,Leeds,United Kingdom,LBA,53.86589813232422,-1.6605700254440308
513,Warton Airport,Warton,United Kingdom,WRT,53.745098,-2.88306
514,Hawarden Airport,Hawarden,United Kingdom,CEG,53.1781005859375,-2.9777801036834717
515,Isle of Man Airport,Isle Of Man,Isle of Man,IOM,54.08330154418945,-4.623889923095703
516,Newcastle Airport,Newcastle,United Kingdom,NCL,55.037498474121094,-1.6916699409484863
517,Durham Tees Valley Airport,Teesside,United Kingdom,MME,54.50920104980469,-1.4294099807739258
518,East Midlands Airport,East Midlands,United Kingdom,EMA,52.8311004639,-1.32806003094
523,Kirkwall Airport,Kirkwall,United Kingdom,KOI,58.957801818847656,-2.9049999713897705
524,Sumburgh Airport,Sumburgh,United Kingdom,LSI,59.87889862060547,-1.295560002326965
525,Wick Airport,Wick,United Kingdom,WIC,58.458900451660156,-3.09306001663208
526,Aberdeen Dyce Airport,Aberdeen,United Kingdom,ABZ,57.20190048217773,-2.1977798938751216
527,Inverness Airport,Inverness,United Kingdom,INV,57.54249954223633,-4.047500133514403
528,Glasgow International Airport,Glasgow,United Kingdom,GLA,55.8718986511,-4.43306016922
529,Edinburgh Airport,Edinburgh,United Kingdom,EDI,55.95000076293945,-3.372499942779541
530,Islay Airport,Islay,United Kingdom,ILY,55.68190002441406,-6.256669998168945
531,Glasgow Prestwick Airport,Prestwick,United Kingdom,PIK,55.5093994140625,-4.586669921875
532,Benbecula Airport,Benbecula,United Kingdom,BEB,57.48109817504883,-7.362780094146728
533,Scatsta Airport,Scatsta,United Kingdom,SCS,60.43280029296875,-1.2961100339889526
534,Dundee Airport,Dundee,United Kingdom,DND,56.45249938964844,-3.025830030441284
535,Stornoway Airport,Stornoway,United Kingdom,SYY,58.215599060058594,-6.3311100006103525
536,Tiree Airport,Tiree,United Kingdom,TRE,56.49919891357422,-6.869170188903809
537,RAF Leuchars,Leuchars,United Kingdom,ADX,56.37289810180664,-2.8684399127960205
538,RAF Lossiemouth,Lossiemouth,United Kingdom,LMO,57.7052001953125,-3.339169979095459
539,Cambridge Airport,Cambridge,United Kingdom,CBG,52.205002,0.175
541,Norwich International Airport,Norwich,United Kingdom,NWI,52.675800323500006,1.28278005123
542,London Stansted Airport,London,United Kingdom,STN,51.8849983215,0.234999999404
546,Exeter International Airport,Exeter,United Kingdom,EXT,50.73440170288086,-3.4138898849487305
547,Bristol Filton Airport,Bristol,United Kingdom,FZO,51.519401550299996,-2.59083008766
548,Oxford (Kidlington) Airport,Oxford,United Kingdom,OXF,51.8368988037,-1.32000005245
549,RAF Benson,Benson,United Kingdom,BEX,51.616401672399995,-1.09582996368
550,RAF Lakenheath,Lakenheath,United Kingdom,LKZ,52.409301757799994,0.5609999895100001
551,RAF Mildenhall,Mildenhall,United Kingdom,MHZ,52.361900329589844,0.4864059984683991
553,RAF Wyton,Wyton,United Kingdom,QUY,52.357200622600004,-0.107832998037
554,RAF Fairford,Fairford,United Kingdom,FFD,51.6822013855,-1.7900300025900002
555,RAF Brize Norton,Brize Norton,United Kingdom,BZZ,51.75,-1.58362
556,RAF Odiham,Odiham,United Kingdom,ODH,51.2341003418,-0.94282501936
558,RAF Northolt,Northolt,United Kingdom,NHT,51.5530014038,-0.418166995049
559,RAF Coningsby,Coningsby,United Kingdom,QCY,53.0929985046,-0.166014000773
563,RAF Honington,Honington,United Kingdom,BEQ,52.34260177612305,0.7729390263557434
565,RAF Scampton,Scampton,United Kingdom,SQZ,53.307800293,-0.550832986832
567,RAF Linton-On-Ouse,Linton-on-ouse,United Kingdom,HRT,54.0489006042,-1.2527500391
568,RAF Waddington,Waddington,United Kingdom,WTN,53.1661987305,-0.5238109827040001
572,RAF Marham,Marham,United Kingdom,KNF,52.648395,0.550692
573,Mount Pleasant Airport,Mount Pleasant,Falkland Islands,MPN,-51.82279968261719,-58.44720077514648
574,Amsterdam Airport Schiphol,Amsterdam,Netherlands,AMS,52.308601,4.76389
576,Maastricht Aachen Airport,Maastricht,Netherlands,MST,50.911701,5.7701400000000005
579,Eindhoven Airport,Eindhoven,Netherlands,EIN,51.4500999451,5.374529838559999
580,Eelde Airport,Groningen,Netherlands,GRQ,53.1197013855,6.579440116880001
581,Gilze Rijen Air Base,Gilze-rijen,Netherlands,GLZ,51.56740188598633,4.931829929351807
582,De Kooy Airport,De Kooy,Netherlands,DHR,52.92340087890625,4.780620098114014
583,Lelystad Airport,Lelystad,Netherlands,LEY,52.4603,5.52722
584,Leeuwarden Air Base,Leeuwarden,Netherlands,LWR,53.228599548339844,5.760560035705566
585,Rotterdam The Hague Airport,Rotterdam,Netherlands,RTM,51.956902,4.43722
586,Soesterberg Air Base,Soesterberg,Netherlands,UTC,52.1273002625,5.27618980408
587,Twente Airport,Enschede,Netherlands,ENS,52.275833,6.889167
588,Valkenburg Naval Air Base,Valkenburg,Netherlands,LID,52.1660995483,4.41794013977
589,Woensdrecht Air Base,Woensdrecht,Netherlands,WOE,51.4491,4.34203
590,Cork Airport,Cork,Ireland,ORK,51.84130096435547,-8.491109848022461
591,Galway Airport,Galway,Ireland,GWY,53.30020141601562,-8.941590309143066
592,Dublin Airport,Dublin,Ireland,DUB,53.421299,-6.27007
593,Ireland West Knock Airport,Connaught,Ireland,NOC,53.9103012084961,-8.818490028381348
594,Kerry Airport,Kerry,Ireland,KIR,52.18090057373047,-9.52377986907959
596,Shannon Airport,Shannon,Ireland,SNN,52.702,-8.92482
597,Sligo Airport,Sligo,Ireland,SXL,54.280200958252,-8.599209785461403
598,Waterford Airport,Waterford,Ireland,WAT,52.18719863891602,-7.0869598388671875
599,Aarhus Airport,Aarhus,Denmark,AAR,56.2999992371,10.619000434899998
600,Billund Airport,Billund,Denmark,BLL,55.7402992249,9.15178012848
601,Copenhagen Kastrup Airport,Copenhagen,Denmark,CPH,55.617900848389,12.656000137328999
602,Esbjerg Airport,Esbjerg,Denmark,EBJ,55.525902,8.5534
604,Karup Airport,Karup,Denmark,KRP,56.29750061035156,9.124629974365234
605,Læsø Airport,Laeso,Denmark,BYR,57.277198791503906,11.000100135803224
606,Lolland Falster Maribo Airport,Maribo,Denmark,MRW,54.699299,11.4401
607,Odense Airport,Odense,Denmark,ODE,55.47669982910156,10.330900192260742
609,Copenhagen Roskilde Airport,Copenhagen,Denmark,RKE,55.58560180664063,12.131400108337402
610,Bornholm Airport,Ronne,Denmark,RNN,55.06330108642578,14.759599685668945
611,Sønderborg Airport,Soenderborg,Denmark,SGD,54.96440124511719,9.791729927062988
612,Skrydstrup Air Base,Skrydstrup,Denmark,SKS,55.221048,9.26702
613,Skive Airport,Skive,Denmark,SQW,56.55020141601562,9.172980308532717
614,Thisted Airport,Thisted,Denmark,TED,57.06880187988281,8.705220222473145
616,Vagar Airport,Vagar,Faroe Islands,FAE,62.0635986328125,-7.277219772338867
618,Stauning Airport,Stauning,Denmark,STA,55.9901008605957,8.353910446166992
619,Aalborg Airport,Aalborg,Denmark,AAL,57.092758913800004,9.84924316406
620,Luxembourg-Findel International Airport,Luxemburg,Luxembourg,LUX,49.6233333,6.204444400000002
621,Ålesund Airport,Alesund,Norway,AES,62.5625,6.119699954986572
622,Andøya Airport,Andoya,Norway,ANX,69.292503356934,16.144199371338
623,Alta Airport,Alta,Norway,ALF,69.976097106934,23.371700286865
625,Brønnøysund Airport,Bronnoysund,Norway,BNN,65.461097717285,12.217499732971001
626,Bodø Airport,Bodo,Norway,BOO,67.26920318603516,14.365300178527832
627,Bergen Airport Flesland,Bergen,Norway,BGO,60.29339981,5.218140125
628,Båtsfjord Airport,Batsfjord,Norway,BJF,70.60050201416,29.691400527954002
629,Kristiansand Airport,Kristiansand,Norway,KRS,58.204201,8.08537
630,Geilo Airport Dagali,Geilo,Norway,DLD,60.41730117797852,8.518349647521973
631,Bardufoss Airport,Bardufoss,Norway,BDU,69.055801391602,18.540399551392
632,"Harstad/Narvik Airport, Evenes",Harstad/Narvik,Norway,EVE,68.491302490234,16.678100585938
633,Leirin Airport,Fagernes,Norway,VDB,61.015598297119,9.2880601882935
634,Florø Airport,Floro,Norway,FRO,61.583599090576,5.0247201919556
635,Oslo Lufthavn,Oslo,Norway,OSL,60.121,11.0502
636,Haugesund Airport,Haugesund,Norway,HAU,59.34529876709001,5.2083601951599015
637,Hasvik Airport,Hasvik,Norway,HAA,70.486701965332,22.139699935913
638,Kristiansund Airport (Kvernberget),Kristiansund,Norway,KSU,63.111801147461,7.824520111083999
640,Kirkenes Airport (Høybuktmoen),Kirkenes,Norway,KKN,69.725799560547,29.891300201416
641,Lista Airport,Farsund,Norway,FAN,58.0994987487793,6.626049995422362
642,Molde Airport,Molde,Norway,MOL,62.744701385498,7.2624998092650985
643,Mosjøen Airport (Kjærstad),Mosjoen,Norway,MJF,65.78399658203101,13.214900016785
644,Banak Airport,Lakselv,Norway,LKL,70.068801879883,24.973499298095998
645,Notodden Airport,Notodden,Norway,NTB,59.565701,9.21222
646,Ørland Airport,Orland,Norway,OLA,63.69889831542969,9.604000091552734
647,Røros Airport,Roros,Norway,RRS,62.57839965820301,11.342300415039
648,"Moss Airport, Rygge",Rygge,Norway,RYG,59.37881700000001,10.785439
649,"Svalbard Airport, Longyear",Svalbard,Norway,LYR,78.246101379395,15.465600013733
650,Skien Airport,Skien,Norway,SKE,59.18500137329102,9.566940307617188
651,Stord Airport,Stord,Norway,SRP,59.79190063476562,5.340849876403809
652,Sandnessjøen Airport (Stokka),Sandnessjoen,Norway,SSJ,65.95680236816399,12.468899726868
653,"Tromsø Airport,",Tromso,Norway,TOS,69.68329620361328,18.91889953613281
654,"Sandefjord Airport, Torp",Sandefjord,Norway,TRF,59.1866989136,10.258600235
655,Trondheim Airport Værnes,Trondheim,Norway,TRD,63.45780179999999,10.9239998
656,Stavanger Airport Sola,Stavanger,Norway,SVG,58.876701354,5.637780189500001
658,Gdańsk Lech Wałęsa Airport,Gdansk,Poland,GDN,54.377601623535156,18.46619987487793
659,Kraków John Paul II International Airport,Krakow,Poland,KRK,50.077702,19.7848
661,Katowice International Airport,Katowice,Poland,KTW,50.4743,19.08
663,Poznań-Ławica Airport,Poznan,Poland,POZ,52.4210014343,16.8262996674
664,Rzeszów-Jasionka Airport,Rzeszow,Poland,RZE,50.1100006104,22.018999099699997
665,"Szczecin-Goleniów ""Solidarność"" Airport",Szczecin,Poland,SZZ,53.584701538100006,14.902199745199999
666,Redzikowo Air Base,Slupsk,Poland,OSP,54.47890090942383,17.107500076293945
668,Warsaw Chopin Airport,Warsaw,Poland,WAW,52.1656990051,20.9671001434
669,Copernicus Wrocław Airport,Wroclaw,Poland,WRO,51.10269927979999,16.885799408
670,Zielona Góra-Babimost Airport,Zielona Gora,Poland,IEG,52.1385002136,15.7986001968
674,Ronneby Airport,Ronneby,Sweden,RNB,56.266700744629,15.265000343322999
676,Gothenburg-Landvetter Airport,Gothenborg,Sweden,GOT,57.662799835205,12.279800415039
677,Jönköping Airport,Joenkoeping,Sweden,JKG,57.75759887695313,14.068699836730955
679,Lidköping-Hovby Airport,Lidkoping,Sweden,LDK,58.4655,13.1744
680,Gothenburg City Airport,Gothenborg,Sweden,GSE,57.7747,11.8704
681,Skövde Airport,Skovde,Sweden,KVB,58.45640182495117,13.972700119018555
682,Trollhättan-Vänersborg Airport,Trollhattan,Sweden,THN,58.31809997558594,12.345000267028807
686,Karlskoga Airport,Karlskoga,Sweden,KSK,59.34590148925781,14.49590015411377
687,Mora Airport,Mora,Sweden,MXX,60.957901,14.5114
688,Stockholm Skavsta Airport,Stockholm,Sweden,NYO,58.78860092163086,16.912200927734375
692,Kristianstad Airport,Kristianstad,Sweden,KID,55.92169952392578,14.08549976348877
694,Oskarshamn Airport,Oskarshamn,Sweden,OSK,57.350498,16.497999
696,Kalmar Airport,Kalkmar,Sweden,KLR,56.68550109863281,16.287599563598633
697,Malmö Sturup Airport,Malmoe,Sweden,MMX,55.53630536399999,13.3761978149
698,Halmstad Airport,Halmstad,Sweden,HAD,56.69110107421875,12.820199966430664
700,Växjö Kronoberg Airport,Vaxjo,Sweden,VXO,56.929100036621094,14.727999687194824
703,Sveg Airport,Sveg,Sweden,EVG,62.04779815673828,14.422900199890135
704,Gällivare Airport,Gallivare,Sweden,GEV,67.13240051269531,20.814599990844727
705,Hudiksvall Airport,Hudiksvall,Sweden,HUV,61.7681007385,17.0806999207
707,Kramfors Sollefteå Airport,Kramfors,Sweden,KRF,63.04859924316406,17.76889991760254
708,Lycksele Airport,Lycksele,Sweden,LYC,64.54830169677734,18.71619987487793
710,Sundsvall-Härnösand Airport,Sundsvall,Sweden,SDL,62.528099060058594,17.443899154663086
711,Örnsköldsvik Airport,Ornskoldsvik,Sweden,OER,63.40829849243164,18.989999771118164
713,Kiruna Airport,Kiruna,Sweden,KRN,67.821998596191,20.336799621582
715,Skellefteå Airport,Skelleftea,Sweden,SFT,64.62480163574219,21.076900482177734
717,Umeå Airport,Umea,Sweden,UME,63.791801452636996,20.282800674438
718,Vilhelmina Airport,Vilhelmina,Sweden,VHM,64.5791015625,16.833599090576172
719,Arvidsjaur Airport,Arvidsjaur,Sweden,AJR,65.59030151367189,19.28190040588379
720,Örebro Airport,Orebro,Sweden,ORB,59.22370147705078,15.038000106811525
721,Stockholm Västerås Airport,Vasteras,Sweden,VST,59.58940124511719,16.633600234985348
722,Luleå Airport,Lulea,Sweden,LLA,65.543800354004,22.121999740601
725,Stockholm-Arlanda Airport,Stockholm,Sweden,ARN,59.651901245116996,17.918600082397
726,Stockholm-Bromma Airport,Stockholm,Sweden,BMA,59.35440063476562,17.941699981689453
727,Borlange Airport,Borlange,Sweden,BLE,60.42200088500977,15.515199661254885
728,Hultsfred Airport,Hultsfred,Sweden,HLF,57.525799,15.8233
729,Gävle Sandviken Airport,Gavle,Sweden,GVX,60.593299865722656,16.951400756835938
730,Linköping City Airport,Linkoeping,Sweden,LPI,58.406200408900006,15.6805000305
731,Norrköping Airport,Norrkoeping,Sweden,NRK,58.58629989624024,16.250600814819336
732,Eskilstuna Airport,Eskilstuna,Sweden,EKT,59.35110092163086,16.70840072631836
733,Visby Airport,Visby,Sweden,VBY,57.662799835205,18.346200942993
735,Spangdahlem Air Base,Spangdahlem,Germany,SPM,49.9726982117,6.6925001144400005
736,Ramstein Air Base,Ramstein,Germany,RMS,49.4369010925293,7.600279808044434
737,[Duplicate] Giebelstadt Army Air Field,Giebelstadt,Germany,GHF,49.648101806599996,9.966489791870002
739,Celle Airport,Celle,Germany,ZCN,52.59120178222656,10.022100448608398
741,Fritzlar Airport,Fritzlar,Germany,FRZ,51.1146,9.286
748,Hanau Army Air Field,Hanau,Germany,ZNF,50.169201,8.96159
750,Flugplatz Kitzingen,Kitzingen,Germany,KZG,49.743099,10.2006
751,Nordholz Naval Airbase,Nordholz,Germany,FCN,53.767700195299994,8.658499717709999
753,Geilenkirchen Air Base,Geilenkirchen,Germany,GKE,50.9608,6.04242
756,Rostock-Laage Airport,Laage,Germany,RLG,53.9182014465,12.2783002853
758,Schleswig Air Base,Schleswig,Germany,WBG,54.459301,9.51633
763,Wiesbaden Army Airfield,Wiesbaden,Germany,WIE,50.04980087280274,8.325400352478027
767,Fürstenfeldbruck Air Base,Fuerstenfeldbruck,Germany,FEL,48.205555,11.266944
769,Ingolstadt Manching Airport,Ingolstadt,Germany,IGS,48.7156982421875,11.534000396728516
772,Gütersloh Air Base,Guetersloh,Germany,GUT,51.922798,8.30633
773,Alexander Bay Airport,Alexander Bay,South Africa,ALJ,-28.575001,16.5333
774,Aggeneys Airport,Aggeneys,South Africa,AGZ,-29.28179931640625,18.813899993896484
776,Bisho Airport,Bisho,South Africa,BIY,-32.897098541300004,27.2791004181
777,Bram Fischer International Airport,Bloemfontein,South Africa,BFN,-29.092699050900002,26.302400589
780,Cape Town International Airport,Cape Town,South Africa,CPT,-33.9648017883,18.6016998291
782,King Shaka International Airport,Durban,South Africa,DUR,-29.6144444444,31.119722222199997
783,Ben Schoeman Airport,East London,South Africa,ELS,-33.0355987549,27.825899124099998
785,Ficksburg Sentraoes Airport,Ficksburg,South Africa,FCB,-28.82309913635254,27.908899307250977
786,Grand Central Airport,Johannesburg,South Africa,GCJ,-25.986299514799995,28.1401004791
787,George Airport,George,South Africa,GRJ,-34.0056,22.378902
792,Harrismith Airport,Harrismith,South Africa,HRS,-28.23509979248047,29.10619926452637
793,Hoedspruit Air Force Base Airport,Hoedspruit,South Africa,HDS,-24.3686008453,31.048700332600003
795,OR Tambo International Airport,Johannesburg,South Africa,JNB,-26.1392,28.246
796,P C Pelser Airport,Klerksdorp,South Africa,KXE,-26.8710994720459,26.718000411987305
797,Kimberley Airport,Kimberley,South Africa,KIM,-28.802799224900003,24.765199661300002
800,Johan Pienaar Airport,Kuruman,South Africa,KMH,-27.45669937133789,23.411399841308594
801,Kleinsee Airport,Kleinsee,South Africa,KLZ,-29.688400268600002,17.093999862700002
802,Lanseria Airport,Johannesburg,South Africa,HLA,-25.9384994507,27.926099777199997
805,Langebaanweg Airport,Langebaanweg,South Africa,SDB,-32.9688987732,18.1602993011
806,Ladysmith Airport,Ladysmith,South Africa,LAY,-28.5816993713,29.7497005463
808,Margate Airport,Margate,South Africa,MGH,-30.8574008942,30.343000412
811,Riverside Airport,Malalane,South Africa,LLE,-25.4300003052,31.5767002106
813,Mkuze Airport,Mkuze,South Africa,MZQ,-27.62610054016113,32.044300079345696
814,Newcastle Airport,Newcastle,South Africa,NCS,-27.7705993652,29.9769001007
816,Overberg Airport,Overberg,South Africa,OVG,-34.554901123,20.250699996900003
817,Oudtshoorn Airport,Oudtshoorn,South Africa,OUH,-33.6069984436,22.188999176
818,Port Elizabeth Airport,Port Elizabeth,South Africa,PLZ,-33.984901428200004,25.617300033600007
819,Plettenberg Bay Airport,Plettenberg Bay,South Africa,PBZ,-34.0881601675,23.3287234306
820,Hendrik Van Eck Airport,Phalaborwa,South Africa,PHW,-23.9372005463,31.1553993225
822,Port St Johns Airport,Port Saint Johns,South Africa,JOH,-31.605899810791016,29.51980018615723
823,Pietermaritzburg Airport,Pietermaritzburg,South Africa,PZB,-29.6490001678,30.3987007141
824,Pilanesberg International Airport,Pilanesberg,South Africa,NTY,-25.333799362199997,27.173400878900004
825,Polokwane International Airport,Potgietersrus,South Africa,PTG,-23.845269,29.458615
826,Potchefstroom Airport,Potchefstroom,South Africa,PCF,-26.670999527,27.081899642899998
828,Queenstown Airport,Queenstown,South Africa,UTW,-31.92020034790039,26.88220024108887
829,Richards Bay Airport,Richard's Bay,South Africa,RCB,-28.740999221800003,32.0920982361
831,Robertson Airport,Robertson,South Africa,ROD,-33.812198638916016,19.90279960632324
832,Springbok Airport,Springbok,South Africa,SBU,-29.68930053710937,17.939599990844727
833,Secunda Airport,Secunda,South Africa,ZEC,-26.52409935,29.1700992584
837,Sishen Airport,Sishen,South Africa,SIS,-27.6485996246,22.9993000031
839,Skukuza Airport,Skukuza,South Africa,SZK,-24.960899353000002,31.588699340799998
843,Tzaneen Airport,Tzaneen,South Africa,LTA,-23.824399948099998,30.329299926799997
844,Prince Mangosuthu Buthelezi Airport,Ulundi,South Africa,ULD,-28.320600509600002,31.4165000916
845,Pierre Van Ryneveld Airport,Upington,South Africa,UTN,-28.39909935,21.260200500499998
846,K. D. Matanzima Airport,Umtata,South Africa,UTT,-31.5463631849,28.6733551025
847,Vryburg Airport,Vryburg,South Africa,VRU,-26.9824008942,24.728799819899997
848,Virginia Airport,Durban,South Africa,VIR,-29.77059936523437,31.05839920043945
849,Vredendal Airport,Vredendal,South Africa,VRE,-31.641000747680664,18.5447998046875
851,Wonderboom Airport,Pretoria,South Africa,PRY,-25.6539,28.224199
853,Waterkloof Air Force Base,Waterkloof,South Africa,WKF,-25.829999923699997,28.222499847399998
857,Francistown Airport,Francistown,Botswana,FRW,-21.15959930419922,27.47450065612793
858,Jwaneng Airport,Jwaneng,Botswana,JWA,-24.6023006439209,24.69099998474121
859,Kasane Airport,Kasane,Botswana,BBK,-17.83289909362793,25.16239929199219
860,Maun Airport,Maun,Botswana,MUB,-19.97260093688965,23.431100845336914
861,Sir Seretse Khama International Airport,Gaberone,Botswana,GBE,-24.555201,25.9182
862,Selebi Phikwe Airport,Selebi-phikwe,Botswana,PKW,-22.0583,27.8288
863,Maya-Maya Airport,Brazzaville,Congo (Brazzaville),BZV,-4.251699924468993,15.253000259399414
864,Owando Airport,Owando,Congo (Kinshasa),FTX,-0.5313500165939331,15.95009994506836
865,Ouesso Airport,Ouesso,Congo (Kinshasa),OUE,1.6159900426899998,16.0379009247
866,Pointe Noire Airport,Pointe-noire,Congo (Brazzaville),PNR,-4.816030025482178,11.88659954071045
867,Matsapha Airport,Manzini,Swaziland,MTS,-26.52899932861328,31.3075008392334
868,Bangui M'Poko International Airport,Bangui,Central African Republic,BGF,4.39847993850708,18.51880073547364
869,Berbérati Airport,Berberati,Central African Republic,BBT,4.221580028533936,15.786399841308596
870,Bata Airport,Bata,Equatorial Guinea,BSG,1.9054700136184688,9.80568027496338
871,Malabo Airport,Malabo,Equatorial Guinea,SSG,3.755270004272461,8.708720207214355
872,RAF Ascension Island,Wide Awake,Saint Helena,ASI,-7.9696,-14.3937
873,Sir Seewoosagur Ramgoolam International Airport,Plaisance,Mauritius,MRU,-20.430201,57.683601
874,Sir Charles Gaetan Duval Airport,Rodriguez Island,Mauritius,RRG,-19.7577,63.361
875,Diego Garcia Naval Support Facility,Diego Garcia Island,British Indian Ocean Territory,NKW,-7.313269999999998,72.411102
876,Tiko Airport,Tiko,Cameroon,TKC,4.08919000626,9.360529899600001
877,Douala International Airport,Douala,Cameroon,DLA,4.0060801506,9.71947956085
878,Salak Airport,Maroua,Cameroon,MVR,10.45139980316162,14.257399559020994
879,Foumban Nkounja Airport,Foumban,Cameroon,FOM,5.636919975280763,10.750800132751463
880,N'Gaoundéré Airport,N'gaoundere,Cameroon,NGE,7.3570098876953125,13.559200286865234
881,Garoua International Airport,Garoua,Cameroon,GOU,9.33588981628418,13.370100021362305
882,Bafoussam Airport,Bafoussam,Cameroon,BFX,5.536920070650001,10.3545999527
883,Bamenda Airport,Bamenda,Cameroon,BPC,6.0392398834228525,10.122599601745604
884,Yaoundé Airport,Yaounde,Cameroon,YAO,3.8360400199890137,11.523500442504885
885,Kasompe Airport,Kasompe,Zambia,CGJ,-12.572799682617,27.893899917603
886,Livingstone Airport,Livingstone,Zambia,LVI,-17.821800231933594,25.82270050048828
887,Kenneth Kaunda International Airport Lusaka,Lusaka,Zambia,LUN,-15.330800056500001,28.4526004791
888,Mfuwe Airport,Mfuwe,Zambia,MFU,-13.258899688720705,31.93659973144531
889,Mongu Airport,Mongu,Zambia,MNR,-15.25450038909912,23.16230010986328
890,Simon Mwansa Kapwepwe International Airport,Ndola,Zambia,NLA,-12.998100280762,28.66489982605
891,Southdowns Airport,Southdowns,Zambia,KIW,-12.900500297546387,28.14990043640137
892,Prince Said Ibrahim International Airport,Moroni,Comoros,HAH,-11.5337,43.2719
893,Mohéli Bandar Es Eslam Airport,Moheli,Comoros,NWA,-12.298100471496582,43.76639938354492
894,Ouani Airport,Anjouan,Comoros,AJN,-12.131699562072756,44.43030166625977
895,Dzaoudzi Pamandzi International Airport,Dzaoudzi,Mayotte,DZA,-12.804699897766113,45.28110122680664
896,Roland Garros Airport,St.-denis,Reunion,RUN,-20.88710021972656,55.51029968261719
897,Pierrefonds Airport,St.-pierre,Reunion,ZSE,-21.320899963378906,55.42499923706055
898,Ivato Airport,Antananarivo,Madagascar,TNR,-18.7969,47.478802
899,Miandrivazo Airport,Miandrivazo,Madagascar,ZVA,-19.56279945373535,45.45080184936523
900,Sainte Marie Airport,Sainte Marie,Madagascar,SMS,-17.093900680541992,49.81579971313477
901,Toamasina Airport,Toamasina,Madagascar,TMM,-18.109500885009766,49.39250183105469
902,Morondava Airport,Morondava,Madagascar,MOQ,-20.28470039367676,44.31760025024414
903,Arrachart Airport,Antsiranana,Madagascar,DIE,-12.34939956665039,49.29169845581055
904,Mananara Nord Airport,Mananara,Madagascar,WMR,-16.16390037536621,49.77379989624024
905,Andapa Airport,Andapa,Madagascar,ZWA,-14.651700019836426,49.62060165405274
906,Ambilobe Airport,Ambilobe,Madagascar,AMB,-13.188400268554688,48.987998962402344
907,Antsirabato Airport,Antalaha,Madagascar,ANM,-14.99940013885498,50.3202018737793
908,Analalava Airport,Analalava,Madagascar,HVA,-14.62969970703125,47.76380157470703
909,Amborovy Airport,Mahajanga,Madagascar,MJN,-15.6668417421,46.351232528699995
910,Fascene Airport,Nosy-be,Madagascar,NOS,-13.3121004105,48.3148002625
911,Besalampy Airport,Besalampy,Madagascar,BPY,-16.744530296500002,44.4824838638
912,Maroantsetra Airport,Maroantsetra,Madagascar,WMN,-15.436699867248535,49.68830108642578
913,Sambava Airport,Sambava,Madagascar,SVB,-14.278599739074707,50.17470169067383
914,Vohimarina Airport,Vohemar,Madagascar,VOH,-13.375800132751465,50.00279998779297
915,Ambalabe Airport,Antsohihy,Madagascar,WAI,-14.898799896240234,47.99390029907226
916,Ampampamena Airport,Ampampamena,Madagascar,IVA,-13.484816,48.632702
917,Tôlanaro Airport,Tolagnaro,Madagascar,FTU,-25.03809928894043,46.95610046386719
918,Fianarantsoa Airport,Fianarantsoa,Madagascar,WFI,-21.441600799560547,47.11169815063477
919,Farafangana Airport,Farafangana,Madagascar,RVA,-22.80529975891113,47.82059860229492
920,Manakara Airport,Manakara,Madagascar,WVK,-22.119699478149414,48.02170181274414
921,Mananjary Airport,Mananjary,Madagascar,MNJ,-21.201799392700195,48.358299255371094
922,Morombe Airport,Morombe,Madagascar,MXM,-21.7539005279541,43.3754997253418
923,Toliara Airport,Toliara,Madagascar,TLE,-23.383399963378906,43.72850036621094
924,Mbanza Congo Airport,M'banza-congo,Angola,SSY,-6.269899845123291,14.246999740600586
925,Benguela Airport,Benguela,Angola,BUG,-12.609000206,13.403699874900001
926,Cabinda Airport,Cabinda,Angola,CAB,-5.59699010848999,12.188400268554688
927,Nova Lisboa Airport,Huambo,Angola,NOV,-12.808899879455565,15.760499954223633
928,Kuito Airport,Kuito,Angola,SVP,-12.404600143433,16.947399139404
930,Quatro de Fevereiro Airport,Luanda,Angola,LAD,-8.858369999999997,13.2312
931,Malanje Airport,Malanje,Angola,MEG,-9.525090217590332,16.312400817871097
932,Menongue Airport,Menongue,Angola,SPP,-14.657600402832033,17.71980094909668
933,Negage Airport,Negage,Angola,GXG,-7.754509925842285,15.287699699401855
934,Porto Amboim Airport,Porto Amboim,Angola,PBN,-10.722000122070312,13.76550006866455
935,Saurimo Airport,Saurimo,Angola,VHC,-9.689069747924805,20.431900024414066
936,Soyo Airport,Soyo,Angola,SZA,-6.141089916229247,12.371800422668455
937,Lubango Airport,Lubango,Angola,SDD,-14.924699783325195,13.574999809265135
938,Luena Airport,Luena,Angola,LUO,-11.768099784851074,19.8976993560791
939,Uige Airport,Uige,Angola,UGO,-7.60306978225708,15.027799606323242
940,Xangongo Airport,Xangongo,Angola,XGN,-16.755399703979492,14.965299606323242
941,Oyem Airport,Oyem,Gabon,OYE,1.5431100130081177,11.581399917602539
942,Okondja Airport,Okondja,Gabon,OKN,-0.6652140021324158,13.673100471496582
943,Lambarene Airport,Lambarene,Gabon,LBQ,-0.7043889760971069,10.245699882507324
944,Bitam Airport,Bitam,Gabon,BMM,2.0756399631500244,11.493200302124025
945,Port Gentil Airport,Port Gentil,Gabon,POG,-0.7117390036582947,8.754380226135254
946,Omboue Hopital Airport,Omboue Hospial,Gabon,OMB,-1.5747300386428833,9.262689590454102
947,Makokou Airport,Makokou,Gabon,MKU,0.5792109966278076,12.890899658203125
948,Libreville Leon M'ba International Airport,Libreville,Gabon,LBV,0.458600014448,9.4122800827
949,M'Vengue El Hadj Omar Bongo Ondimba International Airport,Franceville,Gabon,MVB,-1.6561599969863892,13.437999725341795
950,Principe Airport,Principe,Sao Tome and Principe,PCP,1.6629400253295898,7.411739826202393
951,São Tomé International Airport,Sao Tome,Sao Tome and Principe,TMS,0.3781749904155731,6.712150096893311
952,Beira Airport,Beira,Mozambique,BEW,-19.79640007019043,34.90760040283203
953,Inhambane Airport,Inhambane,Mozambique,INH,-23.876399993896484,35.40850067138672
954,Lichinga Airport,Lichinga,Mozambique,VXC,-13.274,35.2663
955,Lumbo Airport,Lumbo,Mozambique,LFB,-15.0331001282,40.671699523899996
956,Maputo Airport,Maputo,Mozambique,MPM,-25.920799,32.572601
957,Mueda Airport,Mueda,Mozambique,MUD,-11.672900199890135,39.5630989074707
958,Mocímboa da Praia Airport,Mocimboa Da Praia,Mozambique,MZB,-11.36180019378662,40.35490036010742
960,Nacala Airport,Nacala,Mozambique,MNC,-14.488200187683105,40.71220016479492
961,Nampula Airport,Nampula,Mozambique,APL,-15.105600357055664,39.28179931640625
962,Pemba Airport,Pemba,Mozambique,POL,-12.991762161254885,40.52401351928711
963,Quelimane Airport,Quelimane,Mozambique,UEL,-17.855499267578125,36.86909866333008
965,Chingozi Airport,Tete,Mozambique,TET,-16.104799270629886,33.64020156860352
967,Vilankulo Airport,Vilankulu,Mozambique,VNX,-22.018400192260746,35.31330108642578
969,Desroches Airport,Desroches,Seychelles,DES,-5.6967,53.6558
971,Seychelles International Airport,Mahe,Seychelles,SEZ,-4.67434,55.521801
972,Praslin Airport,Praslin,Seychelles,PRI,-4.3192901611328125,55.69139862060547
974,Abeche Airport,Abeche,Chad,AEH,13.847000122070312,20.84429931640625
975,Moundou Airport,Moundou,Chad,MQQ,8.624409675598145,16.071399688720707
976,N'Djamena International Airport,N'djamena,Chad,NDJ,12.1337,15.034
977,Faya Largeau Airport,Faya-largeau,Chad,FYT,17.91710090637207,19.111099243164066
978,Joshua Mqabuko Nkomo International Airport,Bulawayo,Zimbabwe,BUQ,-20.017401,28.617901
980,Buffalo Range Airport,Chiredzi,Zimbabwe,BFO,-21.008101,31.5786
981,Victoria Falls International Airport,Victoria Falls,Zimbabwe,VFA,-18.09589958190918,25.839000701904297
982,Robert Gabriel Mugabe International Airport,Harare,Zimbabwe,HRE,-17.931801,31.0928
983,Kariba International Airport,Kariba,Zimbabwe,KAB,-16.519800186157227,28.88500022888184
985,Mutare Airport,Mutare,Zimbabwe,UTA,-18.997499465942,32.627201080321996
986,Masvingo International Airport,Masvingo,Zimbabwe,MVZ,-20.055299758911133,30.859100341796875
988,Thornhill Air Base,Gwert,Zimbabwe,GWE,-19.436399459838867,29.861900329589844
989,Hwange National Park Airport,Hwange National Park,Zimbabwe,HWN,-18.62989997863769,27.020999908447266
990,Chileka International Airport,Blantyre,Malawi,BLZ,-15.679100036621096,34.9739990234375
991,Karonga Airport,Karonga,Malawi,KGJ,-9.953570365905762,33.893001556396484
992,Kasungu Airport,Kasungu,Malawi,KBQ,-13.014599800109865,33.46860122680664
993,Lilongwe International Airport,Lilongwe,Malawi,LLW,-13.7894001007,33.78099823
994,Mzuzu Airport,Mzuzu,Malawi,ZZU,-11.444700241088867,34.01179885864258
995,Moshoeshoe I International Airport,Maseru,Lesotho,MSU,-29.462299346923828,27.552499771118164
997,Ndjili International Airport,Kinshasa,Congo (Kinshasa),FIH,-4.38575,15.4446
998,Ndolo Airport,Kinshasa,Congo (Kinshasa),NLO,-4.32666015625,15.327500343322999
999,Muanda Airport,Muanda,Congo (Kinshasa),MNB,-5.9308600425720215,12.351799964904785
1001,Bandundu Airport,Bandoundu,Congo (Kinshasa),FDU,-3.3113200664520264,17.38170051574707
1002,Kikwit Airport,Kikwit,Congo (Kinshasa),KKW,-5.035769939422607,18.785600662231445
1003,Mbandaka Airport,Mbandaka,Congo (Kinshasa),MDK,0.0226000007242,18.2887001038
1004,Gbadolite Airport,Gbadolite,Congo (Kinshasa),BDT,4.253210067749023,20.975299835205078
1005,Gemena Airport,Gemena,Congo (Kinshasa),GMA,3.23536992073,19.7712993622
1006,Kotakoli Airport,Kotakoli,Congo (Kinshasa),KLI,4.157639980316162,21.65089988708496
1007,Lisala Airport,Lisala,Congo (Kinshasa),LIQ,2.17066,21.496901
1008,Bangoka International Airport,Kisangani,Congo (Kinshasa),FKI,0.481638997793,25.337999343899998
1009,Matari Airport,Isiro,Congo (Kinshasa),IRP,2.8276100158691406,27.58830070495605
1010,Bunia Airport,Bunia,Congo (Kinshasa),BUX,1.5657199621200562,30.220800399780273
1011,Buta Zega Airport,Buta Zega,Congo (Kinshasa),BZU,2.818350076675415,24.79369926452637
1012,Bukavu Kavumu Airport,Bukavu/kavumu,Congo (Kinshasa),BKY,-2.3089799880981445,28.808799743652344
1013,Goma International Airport,Goma,Congo (Kinshasa),GOM,-1.670809984207153,29.23850059509277
1014,Kindu Airport,Kindu,Congo (Kinshasa),KND,-2.91917991638,25.9153995514
1015,Lubumbashi International Airport,Lubumashi,Congo (Kinshasa),FBM,-11.5913000107,27.5308990479
1016,Kolwezi Airport,Kolwezi,Congo (Kinshasa),KWZ,-10.765899658203123,25.505699157714844
1017,Kalemie Airport,Kalemie,Congo (Kinshasa),FMI,-5.8755598068237305,29.25
1018,Kamina Base Airport,Kamina Base,Congo (Kinshasa),KMN,-8.642020225524902,25.252899169921875
1019,Kananga Airport,Kananga,Congo (Kinshasa),KGA,-5.90005016327,22.4692001343
1020,Mbuji Mayi Airport,Mbuji-mayi,Congo (Kinshasa),MJM,-6.121240139010001,23.5690002441
1021,Modibo Keita International Airport,Bamako,Mali,BKO,12.5335,-7.94994
1022,Gao Airport,Gao,Mali,GAQ,16.24839973449707,-0.005456000100821257
1023,Kayes Dag Dag Airport,Kayes,Mali,KYS,14.481200218200685,-11.404399871826172
1024,Mopti Airport,Mopti,Mali,MZI,14.5128002167,-4.07955980301
1025,Timbuktu Airport,Tombouctou,Mali,TOM,16.730499267578125,-3.0075800418853764
1027,Banjul International Airport,Banjul,Gambia,BJL,13.338000297546387,-16.65220069885254
1028,Fuerteventura Airport,Fuerteventura,Spain,FUE,28.452699661254893,-13.863800048828125
1029,Hierro Airport,Hierro,Spain,VDE,27.814800262451172,-17.887100219726562
1030,La Palma Airport,Santa Cruz De La Palma,Spain,SPC,28.626499,-17.7556
1031,Gran Canaria Airport,Gran Canaria,Spain,LPA,27.931900024414066,-15.38659954071045
1032,Lanzarote Airport,Arrecife,Spain,ACE,28.945499,-13.6052
1033,Tenerife South Airport,Tenerife,Spain,TFS,28.044500351,-16.5725002289
1034,Tenerife Norte Airport,Tenerife,Spain,TFN,28.4827003479,-16.341499328599998
1035,Melilla Airport,Melilla,Spain,MLN,35.279800415,-2.9562599659
1036,Lungi International Airport,Freetown,Sierra Leone,FNA,8.616439999999999,-13.1955
1038,Spriggs Payne Airport,Monrovia,Liberia,MLW,6.289060115814209,-10.758700370788574
1039,Roberts International Airport,Monrovia,Liberia,ROB,6.23379,-10.3623
1040,Al Massira Airport,Agadir,Morocco,AGA,30.32500076293945,-9.41306972503662
1041,Tan Tan Airport,Tan Tan,Morocco,TTA,28.448200225830078,-11.161299705505373
1042,Saïss Airport,Fes,Morocco,FEZ,33.927299499499995,-4.977960109709999
1044,Moulay Ali Cherif Airport,Er-rachidia,Morocco,ERH,31.947500228899997,-4.39833021164
1045,Bassatine Airport,Meknes,Morocco,MEK,33.879100799560554,-5.515120029449463
1046,Angads Airport,Oujda,Morocco,OUD,34.78720092773437,-1.92399001121521
1047,Ben Slimane Airport,Ben Slimane,Morocco,GMD,33.655399,-7.22145
1048,Rabat-Salé Airport,Rabat,Morocco,RBA,34.051497999999995,-6.751519999999998
1049,Mohammed V International Airport,Casablanca,Morocco,CMN,33.36750030517578,-7.589970111846924
1050,Menara Airport,Marrakech,Morocco,RAK,31.6068992615,-8.036299705510002
1051,Kenitra Airport,Kentira,Morocco,NNA,34.298900604248054,-6.5958800315856925
1052,Ouarzazate Airport,Ouarzazate,Morocco,OZZ,30.939100265500002,-6.909430027010001
1053,Cherif Al Idrissi Airport,Al Hociema,Morocco,AHU,35.177101135253906,-3.83951997756958
1054,Saniat R'mel Airport,Tetouan,Morocco,TTU,35.594299316406,-5.320020198822
1055,Ibn Batouta Airport,Tanger,Morocco,TNG,35.726898193400004,-5.916890144349999
1056,Ziguinchor Airport,Ziguinchor,Senegal,ZIG,12.5556,-16.281799
1057,Cap Skirring Airport,Cap Skiring,Senegal,CSK,12.39533,-16.748
1058,Kaolack Airport,Kaolack,Senegal,KLC,14.146900177001953,-16.051300048828125
1059,Léopold Sédar Senghor International Airport,Dakar,Senegal,DKR,14.739700317382812,-17.49020004272461
1060,Saint Louis Airport,St. Louis,Senegal,XLS,16.050800323486328,-16.463199615478516
1061,Bakel Airport,Bakel,Senegal,BXE,14.847299575805664,-12.468299865722654
1062,Kédougou Airport,Kedougou,Senegal,KGG,12.57229995727539,-12.22029972076416
1063,Tambacounda Airport,Tambacounda,Senegal,TUD,13.73680019378662,-13.65310001373291
1064,Aioun el Atrouss Airport,Aioun El Atrouss,Mauritania,AEO,16.711299896240234,-9.637880325317383
1065,Tidjikja Airport,Tidjikja,Mauritania,TIY,18.57010078430176,-11.423500061035154
1066,Kiffa Airport,Kiffa,Mauritania,KFA,16.59000015258789,-11.406200408935547
1067,Néma Airport,Nema,Mauritania,EMN,16.621999740600586,-7.3165998458862305
1068,Kaédi Airport,Kaedi,Mauritania,KED,16.159500122070312,-13.50759983062744
1069,Nouakchott–Oumtounsy International Airport,Nouakschott,Mauritania,NKC,18.31,-15.969722199999998
1070,Sélibaby Airport,Selibabi,Mauritania,SEY,15.179699897766113,-12.207300186157227
1071,Atar International Airport,Atar,Mauritania,ATR,20.506799697875977,-13.04319953918457
1072,Nouadhibou International Airport,Nouadhibou,Mauritania,NDB,20.9330997467041,-17.030000686645508
1074,Fria Airport,Fira,Guinea,FIG,10.350600242615,-13.569199562072999
1075,Faranah Airport,Faranah,Guinea,FAA,10.0354995728,-10.7698001862
1076,Tata Airport,Labe,Guinea,LEK,11.326100349426,-12.286800384521001
1077,Amílcar Cabral International Airport,Amilcar Cabral,Cape Verde,SID,16.7414,-22.9494
1078,Rabil Airport,Boa Vista,Cape Verde,BVC,16.136499404907227,-22.888900756835927
1079,Maio Airport,Maio,Cape Verde,MMO,15.15590000152588,-23.21369934082031
1080,Preguiça Airport,Sao Nocolau Island,Cape Verde,SNE,16.58839988708496,-24.28470039367676
1081,São Pedro Airport,Sao Vicente Island,Cape Verde,VXE,16.833200454711914,-25.05529975891113
1082,Addis Ababa Bole International Airport,Addis Ababa,Ethiopia,ADD,8.97789001465,38.7993011475
1084,Arba Minch Airport,Arba Minch,Ethiopia,AMH,6.0393900871276855,37.59049987792969
1085,Axum Airport,Axum,Ethiopia,AXU,14.14680004119873,38.77280044555664
1086,Bahir Dar Airport,Bahar Dar,Ethiopia,BJR,11.608099937438965,37.32160186767578
1087,Aba Tenna Dejazmach Yilma International Airport,Dire Dawa,Ethiopia,DIR,9.624699592590332,41.85419845581055
1088,Gambella Airport,Gambella,Ethiopia,GMB,8.12876033782959,34.563098907470696
1089,Gonder Airport,Gondar,Ethiopia,GDQ,12.51990032196045,37.433998107910156
1090,Jimma Airport,Jimma,Ethiopia,JIM,7.66609001159668,36.81660079956055
1091,Lalibella Airport,Lalibella,Ethiopia,LLI,11.975000381469727,38.97999954223633
1092,Mekele Airport,Makale,Ethiopia,MQX,13.467399597167967,39.53350067138672
1093,Asosa Airport,Asosa,Ethiopia,ASO,10.018500328063963,34.586299896240234
1094,Bujumbura International Airport,Bujumbura,Burundi,BJM,-3.3240199089050293,29.318500518798828
1095,Egal International Airport,Hargeisa,Somalia,HGA,9.518170356750488,44.08879852294922
1096,Berbera Airport,Berbera,Somalia,BBO,10.389200210571287,44.94110107421875
1097,Kisimayu Airport,Kismayu,Somalia,KMU,-0.3773530125617981,42.45920181274414
1098,El Nouzha Airport,Alexandria,Egypt,ALY,31.183900833129893,29.94890022277832
1099,Abu Simbel Airport,Abu Simbel,Egypt,ABS,22.3759994507,31.611700058
1100,Cairo International Airport,Cairo,Egypt,CAI,30.12190055847168,31.40559959411621
1101,Cairo West Airport,Cairo,Egypt,CWE,30.116399765,30.9153995514
1102,Hurghada International Airport,Hurghada,Egypt,HRG,27.178300857543945,33.799400329589844
1103,El Gora Airport,El Gorah,Egypt,EGH,31.068559000000004,34.129629
1104,Luxor International Airport,Luxor,Egypt,LXR,25.671,32.7066
1105,Mersa Matruh Airport,Mersa-matruh,Egypt,MUH,31.325399398800002,27.2217006683
1106,Port Said Airport,Port Said,Egypt,PSD,31.279399871826172,32.240001678466804
1107,St Catherine International Airport,St. Catherine,Egypt,SKV,28.685300827,34.0625
1108,Aswan International Airport,Aswan,Egypt,ASW,23.964399337800003,32.8199996948
1109,El Tor Airport,El-tor,Egypt,ELT,28.208999633789066,33.64550018310547
1110,Eldoret International Airport,Eldoret,Kenya,EDL,0.4044579863548279,35.23889923095703
1111,Kakamega Airport,Kakamega,Kenya,GGM,0.271342009306,34.787300109899995
1112,Kisumu Airport,Kisumu,Kenya,KIS,-0.0861390009522438,34.72890090942383
1113,Kitale Airport,Kitale,Kenya,KTL,0.9719889760017396,34.95859909057617
1114,Lodwar Airport,Lodwar,Kenya,LOK,3.1219699382781982,35.608699798583984
1115,Manda Airstrip,Lamu,Kenya,LAU,-2.252419948577881,40.91310119628906
1116,Mombasa Moi International Airport,Mombasa,Kenya,MBA,-4.034830093383788,39.594200134277344
1118,Nairobi Wilson Airport,Nairobi,Kenya,WIL,-1.321720004081726,36.81480026245117
1120,Wajir Airport,Wajir,Kenya,WJR,1.73324,40.091599
1123,Ghat Airport,Ghat,Libya,GHT,25.1455993652,10.142600059500001
1124,Kufra Airport,Kufra,Libya,AKF,24.178699493408203,23.31399917602539
1125,Benina International Airport,Benghazi,Libya,BEN,32.096801757799994,20.2695007324
1126,Sabha Airport,Sebha,Libya,SEB,26.98699951171875,14.47249984741211
1127,Tripoli International Airport,Tripoli,Libya,TIP,32.6635017395,13.159000396700002
1128,Marsa Brega Airport,Marsa Brega,Libya,LMQ,30.37809944152832,19.576400756835934
1130,Hon Airport,Hon,Libya,HUQ,29.11009979248047,15.96560001373291
1132,Ghadames East Airport,Ghadames,Libya,LTD,30.15169906616211,9.715310096740724
1134,Gisenyi Airport,Gisenyi,Rwanda,GYI,-1.6771999597549438,29.258899688720703
1135,Kigali International Airport,Kigali,Rwanda,KGL,-1.96863,30.1395
1136,Kamembe Airport,Kamembe,Rwanda,KME,-2.462239980697632,28.907899856567386
1137,Dongola Airport,Dongola,Sudan,DOG,19.1539001465,30.4300994873
1138,Damazin Airport,Damazin,Sudan,RSS,11.7859,34.3367
1139,El Fasher Airport,El Fasher,Sudan,ELF,13.61489963531494,25.32460021972656
1140,Kassala Airport,Kassala,Sudan,KSL,15.387499809265135,36.328800201416016
1141,Kadugli Airport,Kadugli,Sudan,KDX,11.137999534600002,29.7010993958
1142,El Obeid Airport,El Obeid,Sudan,EBD,13.153200149536133,30.23270034790039
1143,Juba International Airport,Juba,South Sudan,JUB,4.87201023102,31.601100921599997
1144,Malakal Airport,Malakal,Sudan,MAK,9.55897045135498,31.65220069885254
1145,Khartoum International Airport,Khartoum,Sudan,KRT,15.589500427246096,32.55319976806641
1146,Arusha Airport,Arusha,Tanzania,ARK,-3.3677899837493896,36.63330078125
1147,Julius Nyerere International Airport,Dar Es Salaam,Tanzania,DAR,-6.87811,39.202599
1148,Dodoma Airport,Dodoma,Tanzania,DOD,-6.170440196990968,35.752601623535156
1149,Iringa Airport,Iringa,Tanzania,IRI,-7.668630123138428,35.75210189819336
1150,Kilimanjaro International Airport,Kilimanjaro,Tanzania,JRO,-3.42940998077,37.0745010376
1151,Lake Manyara Airport,Lake Manyara,Tanzania,LKY,-3.376310110092163,35.81829833984375
1152,Mtwara Airport,Mtwara,Tanzania,MYW,-10.339099884033203,40.181800842285156
1153,Mwanza Airport,Mwanza,Tanzania,MWZ,-2.4444899559021,32.932701110839844
1154,Pemba Airport,Pemba,Tanzania,PMA,-5.257259845733644,39.8114013671875
1155,Tanga Airport,Tanga,Tanzania,TGT,-5.092360019683838,39.07120132446289
1156,Abeid Amani Karume International Airport,Zanzibar,Tanzania,ZNZ,-6.22202,39.224899
1157,Entebbe International Airport,Entebbe,Uganda,EBB,0.042386,32.443501
1158,Soroti Airport,Soroti,Uganda,SRT,1.7276899814605713,33.62279891967773
1159,Tirana International Airport Mother Teresa,Tirana,Albania,TIA,41.4146995544,19.7206001282
1160,Burgas Airport,Bourgas,Bulgaria,BOJ,42.56959915161133,27.515199661254893
1161,Gorna Oryahovitsa Airport,Gorna Orechovica,Bulgaria,GOZ,43.15140151977539,25.712900161743164
1162,Plovdiv International Airport,Plovdiv,Bulgaria,PDV,42.067799,24.8508
1163,Sofia Airport,Sofia,Bulgaria,SOF,42.696693420410156,23.411436080932607
1164,Stara Zagora Airport,Stara Zagora,Bulgaria,SZR,42.3766667,25.655
1165,Varna Airport,Varna,Bulgaria,VAR,43.232101,27.8251
1166,Larnaca International Airport,Larnaca,Cyprus,LCA,34.875099182128906,33.62490081787109
1167,Paphos International Airport,Paphos,Cyprus,PFO,34.71799850463867,32.48569869995117
1168,RAF Akrotiri,Akrotiri,Cyprus,AKT,34.590401,32.9879
1169,Dubrovnik Airport,Dubrovnik,Croatia,DBV,42.5614013671875,18.268199920654297
1171,Osijek Airport,Osijek,Croatia,OSI,45.46269989013672,18.810199737548828
1172,Pula Airport,Pula,Croatia,PUY,44.89350128173828,13.922200202941895
1174,Rijeka Airport,Rijeka,Croatia,RJK,45.21689987182617,14.570300102233887
1175,Split Airport,Split,Croatia,SPU,43.53889846801758,16.29800033569336
1177,Zagreb Airport,Zagreb,Croatia,ZAG,45.74290084840001,16.0687999725
1178,Zadar Airport,Zadar,Croatia,ZAD,44.108299,15.3467
1180,Albacete-Los Llanos Airport,Albacete,Spain,ABC,38.9485015869,-1.86352002621
1181,Alicante International Airport,Alicante,Spain,ALC,38.28219985961914,-0.5581560134887695
1182,Almería International Airport,Almeria,Spain,LEI,36.84389877319336,-2.3701000213623047
1183,Asturias Airport,Aviles,Spain,OVD,43.5635986328125,-6.0346198081970215
1184,Córdoba Airport,Cordoba,Spain,ODB,37.84199905395508,-4.848879814147949
1185,Bilbao Airport,Bilbao,Spain,BIO,43.30110168457031,-2.9106099605560303
1186,Barcelona International Airport,Barcelona,Spain,BCN,41.2971,2.07846
1187,Badajoz Airport,Badajoz,Spain,BJZ,38.891300201416016,-6.8213300704956055
1188,A Coruña Airport,La Coruna,Spain,LCG,43.302101,-8.37726
1190,Girona Airport,Gerona,Spain,GRO,41.901000976999995,2.7605500221
1191,Federico Garcia Lorca Airport,Granada,Spain,GRX,37.18870162963867,-3.777359962463379
1193,Ibiza Airport,Ibiza,Spain,IBZ,38.8728981018,1.3731199502899998
1194,Jerez Airport,Jerez,Spain,XRY,36.74459838867188,-6.060110092163086
1195,San Javier Airport,Murcia,Spain,MJV,37.775001525878906,-0.8123890161514282
1196,Adolfo Suárez Madrid–Barajas Airport,Madrid,Spain,MAD,40.471926,-3.56264
1197,Málaga Airport,Malaga,Spain,AGP,36.67490005493164,-4.499110221862793
1198,Menorca Airport,Menorca,Spain,MAH,39.86259841918945,4.2186498641967765
1199,Moron Air Base,Sevilla,Spain,OZP,37.17490005493164,-5.6159400939941415
1201,Pamplona Airport,Pamplona,Spain,PNA,42.77000045776367,-1.6463299989700315
1203,Reus Air Base,Reus,Spain,REU,41.14739990234375,1.1671700477600098
1204,Rota Naval Station Airport,Rota,Spain,ROZ,36.645198822,-6.34946012497
1205,Salamanca Airport,Salamanca,Spain,SLM,40.95209884643555,-5.501989841461182
1208,San Sebastian Airport,San Sebastian,Spain,EAS,43.35649871826172,-1.7906099557876587
1209,Santiago de Compostela Airport,Santiago,Spain,SCQ,42.89630126953125,-8.415140151977539
1210,Pirineus - la Seu d'Urgel Airport,Seo De Urgel,Spain,LEU,42.3386,1.40917
1211,Torrejón Airport,Madrid,Spain,TOJ,40.49670028686523,-3.4458699226379395
1212,Valencia Airport,Valencia,Spain,VLC,39.4893,-0.481625
1213,Valladolid Airport,Valladolid,Spain,VLL,41.7061004639,-4.85194015503
1214,Vitoria/Foronda Airport,Vitoria,Spain,VIT,42.8828010559082,-2.7244699001312256
1215,Vigo Airport,Vigo,Spain,VGO,42.2318000793457,-8.62677001953125
1216,Santander Airport,Santander,Spain,SDR,43.427101135253906,-3.82000994682312
1217,Zaragoza Air Base,Zaragoza,Spain,ZAZ,41.66619873046875,-1.0415500402450562
1218,Sevilla Airport,Sevilla,Spain,SVQ,37.41799926757813,-5.8931097984313965
1219,Calais-Dunkerque Airport,Calais,France,CQF,50.96210098266602,1.954759955406189
1223,Albert-Bray Airport,Albert,France,BYF,49.9715003967,2.69765996933
1224,Le Touquet-Côte d'Opale Airport,Le Tourquet,France,LTQ,50.51739883422852,1.6205899715423584
1225,Valenciennes-Denain Airport,Valenciennes,France,XVS,50.32580184936523,3.4612600803375244
1227,Agen-La Garenne Airport,Agen,France,AGF,44.17470169067383,0.5905560255050659
1229,Bordeaux-Mérignac Airport,Bordeaux,France,BOD,44.8283004761,-0.7155560255050001
1230,Bergerac-Roumanière Airport,Bergerac,France,EGC,44.82529830932617,0.5186110138893127
1232,Cognac-Châteaubernard (BA 709) Air Base,Cognac,France,CNG,45.65829849243164,-0.3174999952316284
1233,Poitiers-Biard Airport,Poitiers,France,PIS,46.58769989013672,0.30666598677635193
1234,Montluçon-Guéret Airport,Montlucon-gueret,France,MCU,46.22259902954102,2.3639600276947017
1235,Limoges Airport,Limoges,France,LIG,45.86280059814453,1.1794400215148926
1237,Niort-Souché Airport,Niort,France,NIT,46.313477,-0.394529
1238,Toulouse-Blagnac Airport,Toulouse,France,TLS,43.629101,1.36382
1239,Pau Pyrénées Airport,Pau,France,PUF,43.38000106811523,-0.4186109900474548
1241,Tarbes-Lourdes-Pyrénées Airport,Tarbes,France,LDE,43.1786994934082,-0.006438999902456999
1242,Angoulême-Brie-Champniers Airport,Angouleme,France,ANG,45.72919845581055,0.22145600616931915
1243,Brive Souillac Airport,Brive,France,BVE,45.039722,1.485556
1244,Périgueux-Bassillac Airport,Perigueux,France,PGX,45.19810104370117,0.815555989742279
1245,Biarritz-Anglet-Bayonne Airport,Biarritz-bayonne,France,BIQ,43.4683333,-1.5311111000000002
1246,Cahors-Lalbenque Airport,Cahors,France,ZAO,44.35139846801758,1.4752800464630127
1249,Albi-Le Séquestre Airport,Albi,France,LBI,43.91389846801758,2.1130599975585938
1250,Castres-Mazamet Airport,Castres,France,DCM,43.55630111694336,2.289180040359497
1254,Rodez-Marcillac Airport,Rodez,France,RDZ,44.407901763916016,2.4826700687408447
1257,Royan-Médis Airport,Royan,France,RYN,45.62810134887695,-0.9725000262260436
1260,Montauban Airport,Montauban,France,XMW,44.02569961547852,1.3780399560928345
1265,Rochefort-Saint-Agnant (BA 721) Airport,Rochefort,France,RCO,45.88779830932617,-0.9830560088157654
1271,Colmar-Houssen Airport,Colmar,France,CMR,48.109901428222656,7.359010219573975
1273,Dole-Tavaux Airport,Dole,France,DLE,47.042686,5.435063
1276,Aubenas-Ardèche Méridional Airport,Aubenas-vals-lanas,France,OBS,44.544203,4.372192
1277,Le Puy-Loudes Airport,Le Puy,France,LPY,45.0806999206543,3.7628901004791264
1284,Metz-Nancy-Lorraine Airport,Metz,France,ETZ,48.9821014404,6.25131988525
1285,Bastia-Poretta Airport,Bastia,France,BIA,42.55270004272461,9.48373031616211
1286,Calvi-Sainte-Catherine Airport,Calvi,France,CLY,42.52444439999999,8.793055599999999
1287,Figari Sud-Corse Airport,Figari,France,FSC,41.5005989074707,9.097780227661133
1288,Ajaccio-Napoléon Bonaparte Airport,Ajaccio,France,AJA,41.92359924316406,8.8029203414917
1289,Propriano Airport,Propriano,France,PRP,41.66059875488281,8.889749526977539
1290,Solenzara (BA 126) Air Base,Solenzara,France,SOZ,41.924400329589844,9.406000137329102
1292,Auxerre-Branches Airport,Auxerre,France,AUF,47.85020065307617,3.4971098899841317
1293,Chambéry-Savoie Airport,Chambery,France,CMF,45.638099670410156,5.880229949951173
1294,Clermont-Ferrand Auvergne Airport,Clermont-Ferrand,France,CFE,45.786701202399996,3.1691699028
1295,Bourges Airport,Bourges,France,BOU,47.05810165405274,2.3702800273895264
1298,Annemasse Airport,Annemasse,France,QNJ,46.1920013428,6.2683901786800025
1299,Lyon Saint-Exupéry Airport,Lyon,France,LYS,45.725556,5.081111
1301,Saint-Yan Airport,St.-yan,France,SYT,46.412498474121094,4.0132598876953125
1302,Roanne-Renaison Airport,Roanne,France,RNE,46.05830001831055,4.001389980316162
1303,Annecy-Haute-Savoie-Mont Blanc Airport,Annecy,France,NCY,45.9308333,6.106388900000002
1304,Grenoble-Isère Airport,Grenoble,France,GNB,45.36289978027344,5.329370021820068
1306,Valence-Chabeuil Airport,Valence,France,VAF,44.9216,4.9699
1307,Vichy-Charmeil Airport,Vichy,France,VHY,46.169700622558594,3.4037399291992188
1308,Aurillac Airport,Aurillac,France,AUR,44.89139938354492,2.4219400882720947
1309,"Châteauroux-Déols ""Marcel Dassault"" Airport",Chateauroux,France,CHR,46.860278,1.721111
1310,Lyon-Bron Airport,Lyon,France,LYN,45.72719955444336,4.944270133972168
1313,Cannes-Mandelieu Airport,Cannes,France,CEQ,43.542,6.95348
1314,Saint-Étienne-Bouthéon Airport,St-Etienne,France,EBU,45.54059982299805,4.2963900566101065
1316,Carcassonne Airport,Carcassonne,France,CCF,43.21599960327149,2.3063199520111084
1317,Marseille Provence Airport,Marseille,France,MRS,43.439271921999996,5.22142410278
1318,Nice-Côte d'Azur Airport,Nice,France,NCE,43.658401489300005,7.215869903560001
1319,Orange-Caritat (BA 115) Air Base,Orange,France,XOG,44.14049911499024,4.866720199584961
1320,Perpignan-Rivesaltes (Llabanère) Airport,Perpignan,France,PGF,42.74039840698242,2.8706700801849365
1321,Le Castellet Airport,Le Castellet,France,CTT,43.25249862670898,5.785190105438232
1323,Montpellier-Méditerranée Airport,Montpellier,France,MPL,43.57619857788086,3.96301007270813
1324,Béziers-Vias Airport,Beziers,France,BZR,43.32350158691406,3.3538999557495117
1325,Avignon-Caumont Airport,Avignon,France,AVN,43.90729904174805,4.901830196380615
1328,Mende-Brenoux Airfield,Mende,France,MEN,44.502102,3.53282
1331,Paris Beauvais Tillé Airport,Beauvais,France,BVA,49.45439910888672,2.1127800941467285
1334,Évreux-Fauville (BA 105) Air Base,Evreux,France,EVX,49.02870178222656,1.219859957695007
1335,Le Havre Octeville Airport,Le Havre,France,LEH,49.53390121459961,0.08805599808692932
1336,Abbeville,Abbeville,France,XAB,50.143501,1.831891
1337,Orléans-Bricy (BA 123) Air Base,Orleans,France,ORE,47.9878005981,1.7605600357100002
1338,Châlons-Vatry Airport,Chalons,France,XCR,48.7733333333,4.206111111
1339,Rouen Airport,Rouen,France,URO,49.38420104980469,1.1748000383377075
1340,Tours-Val-de-Loire Airport,Tours,France,TUF,47.4322013855,0.727605998516
1341,Cholet Le Pontreau Airport,Cholet,France,CET,47.08209991455078,-0.8770639896392822
1342,Laval-Entrammes Airport,Laval,France,LVA,48.03139877319336,-0.7429860234260559
1344,Paris-Le Bourget Airport,Paris,France,LBG,48.969398498535156,2.441390037536621
1345,Creil Air Base,Creil,France,CSF,49.253501892089844,2.5191400051116943
1346,Charles de Gaulle International Airport,Paris,France,CDG,49.012798,2.55
1349,Toussus-le-Noble Airport,Toussous-le-noble,France,TNF,48.75189971923828,2.1061899662017822
1350,Paris-Orly Airport,Paris,France,ORY,48.7233333,2.3794444
1351,Pontoise - Cormeilles-en-Vexin Airport,Pontoise,France,POX,49.096667,2.040833
1352,Villacoublay-Vélizy (BA 107) Air Base,Villacoublay,France,VIY,48.7741667,2.1916667000000003
1358,Nevers-Fourchambault Airport,Nevers,France,NVS,47.002601623535156,3.1133298873901367
1360,Maubeuge-Élesmes Airport,Maubeuge,France,XME,50.31050109863281,4.0331201553344735
1363,Lille-Lesquin Airport,Lille,France,LIL,50.563332,3.086886
1364,Merville-Calonne Airport,Merville,France,HZB,50.61840057373047,2.642240047454834
1365,Charleville-Mézières Airport,Charleville,France,XCZ,49.78390121459961,4.647079944610597
1367,Brest Bretagne Airport,Brest,France,BES,48.4478988647461,-4.418540000915527
1368,Cherbourg-Maupertus Airport,Cherbourg,France,CER,49.65010070800781,-1.4702800512313845
1369,Dinard-Pleurtuit-Saint-Malo Airport,Dinard,France,DNR,48.58769989013672,-2.0799601078033447
1370,La Baule-Escoublac Airport,La Baule,France,LBY,47.28939819335938,-2.346390008926392
1371,Granville Airport,Granville,France,GFR,48.88309860229492,-1.564170002937317
1372,Deauville-Saint-Gatien Airport,Deauville,France,DOL,49.3652992249,0.154305994511
1373,Lorient South Brittany (Bretagne Sud) Airport,Lorient,France,LRT,47.76060104370117,-3.440000057220459
1374,La Roche-sur-Yon Airport,La Roche-sur-yon,France,EDM,46.70190048217773,-1.3786300420761108
1375,Landivisiau Air Base,Landivisiau,France,LDV,48.53030014038086,-4.151639938354491
1376,Caen-Carpiquet Airport,Caen,France,CFR,49.173301696777344,-0.44999998807907104
1378,Le Mans-Arnage Airport,Le Mans,France,LME,47.94860076904297,0.201666995882988
1379,Rennes-Saint-Jacques Airport,Rennes,France,RNS,48.0694999695,-1.73478996754
1380,Lannion-Côte de Granit Airport,Lannion,France,LAI,48.754398,-3.47166
1381,Quimper-Cornouaille Airport,Quimper,France,UIP,47.974998474121094,-4.167789936065674
1382,Nantes Atlantique Airport,Nantes,France,NTE,47.15319824220001,-1.61073005199
1383,Saint-Brieuc-Armor Airport,St.-brieuc Armor,France,SBK,48.5378,-2.8544400000000003
1384,Morlaix-Ploujean Airport,Morlaix,France,MXN,48.6031990051,-3.81577992439
1385,Vannes-Meucon Airport,Vannes,France,VNE,47.72330093383789,-2.718559980392456
1386,Saint-Nazaire-Montoir Airport,St.-nazaire,France,SNR,47.3105556,-2.1566667
1387,EuroAirport Basel-Mulhouse-Freiburg Airport,Mulhouse,France,BSL,47.59,7.5291667
1389,Dijon-Bourgogne Airport,Dijon,France,DIJ,47.268902,5.09
1390,Metz-Frescaty (BA 128) Air Base,Metz,France,MZM,49.07170104980469,6.131669998168945
1391,Épinal-Mirecourt Airport,Epinal,France,EPL,48.325001,6.06998
1395,Nancy-Essey Airport,Nancy,France,ENC,48.692100524902344,6.230460166931152
1398,Reims-Champagne (BA 112) Air Base,Reims,France,RHE,49.310001,4.05
1399,Strasbourg Airport,Strasbourg,France,SXB,48.53829956054688,7.628230094909668
1402,Toulon-Hyères Airport,Hyeres,France,TLN,43.0973014832,6.14602994919
1403,Nîmes-Arles-Camargue Airport,Nimes,France,FNI,43.75740051269531,4.4163498878479
1404,Miquelon Airport,Miquelon,Saint Pierre and Miquelon,MQC,47.095500946,-56.3802986145
1405,St Pierre Airport,St.-pierre,Saint Pierre and Miquelon,FSP,46.762901306152344,-56.17309951782226
1408,Andravida Air Base,Andravida,Greece,PYR,37.9207,21.292601
1409,Agrinion Air Base,Agrinion,Greece,AGQ,38.602001,21.351200100000003
1410,Dimokritos Airport,Alexandroupolis,Greece,AXD,40.855899810791016,25.956300735473643
1412,Nea Anchialos Airport,Nea Anghialos,Greece,VOL,39.21960067749024,22.794300079345703
1414,Chios Island National Airport,Chios,Greece,JKH,38.34320068359375,26.14060020446777
1415,Ioannina Airport,Ioannina,Greece,IOA,39.6963996887207,20.82250022888184
1416,Heraklion International Nikos Kazantzakis Airport,Heraklion,Greece,HER,35.3396987915,25.1802997589
1417,Kastoria National Airport,Kastoria,Greece,KSO,40.4463005066,21.282199859600002
1418,Kithira Airport,Kithira,Greece,KIT,36.2742996216,23.0170001984
1419,Kefallinia Airport,Keffallinia,Greece,EFL,38.12009811401367,20.5004997253418
1420,Kalamata Airport,Kalamata,Greece,KLX,37.06829833984375,22.02549934387207
1422,Kos Airport,Kos,Greece,KGS,36.79330062866211,27.09169960021973
1423,Karpathos Airport,Karpathos,Greece,AOK,35.4213981628418,27.145999908447266
1424,Ioannis Kapodistrias International Airport,Kerkyra/corfu,Greece,CFU,39.601898193359375,19.911699295043945
1425,Kasos Airport,Kasos,Greece,KSJ,35.4213981628,26.909999847399998
1426,Alexander the Great International Airport,Kavala,Greece,KVA,40.91329956054688,24.619199752807607
1427,Filippos Airport,Kozani,Greece,KZI,40.28609848022461,21.84079933166504
1428,Leros Airport,Leros,Greece,LRS,37.184898,26.800301
1429,Limnos Airport,Limnos,Greece,LXS,39.917098999000004,25.236299514799995
1430,Larisa Airport,Larissa,Greece,LRA,39.650253,22.4655
1432,Mikonos Airport,Mykonos,Greece,JMK,37.43510055541992,25.348100662231445
1433,Mytilene International Airport,Mytilini,Greece,MJT,39.0567016602,26.5983009338
1434,Aktion National Airport,Preveza,Greece,PVK,38.925498962402344,20.765300750732425
1436,Diagoras Airport,Rhodos,Greece,RHO,36.40539932250977,28.086200714111328
1437,Araxos Airport,Patras,Greece,GPA,38.1511,21.4256
1438,Chania International Airport,Chania,Greece,CHQ,35.531700134277344,24.149700164794922
1439,Skiathos Island National Airport,Skiathos,Greece,JSI,39.177101135253906,23.503700256347656
1440,Samos Airport,Samos,Greece,SMI,37.68999862670898,26.911699295043945
1441,Sparti Airport,Sparti,Greece,SPJ,36.973899841308594,22.52630043029785
1442,Santorini Airport,Thira,Greece,JTR,36.39920043945313,25.47929954528809
1443,Sitia Airport,Sitia,Greece,JSH,35.21609878540039,26.101299285888672
1445,Skiros Airport,Skiros,Greece,SKU,38.967601776100004,24.4871997833
1449,Thessaloniki Macedonia International Airport,Thessaloniki,Greece,SKG,40.51969909667969,22.97089958190918
1451,"Zakynthos International Airport ""Dionysios Solomos""",Zakynthos,Greece,ZTH,37.7509,20.8843
1452,Budapest Liszt Ferenc International Airport,Budapest,Hungary,BUD,47.42976,19.261093
1453,Debrecen International Airport,Debrecen,Hungary,DEB,47.48889923095703,21.61529922485352
1460,Crotone Airport,Crotone,Italy,CRV,38.9972,17.0802
1461,Bari Karol Wojtyła Airport,Bari,Italy,BRI,41.138901,16.760599
1462,"Foggia ""Gino Lisa"" Airport",Foggia,Italy,FOG,41.432899,15.535
1463,"Taranto-Grottaglie ""Marcello Arlotta"" Airport",Grottaglie,Italy,TAR,40.517502,17.4032
1464,Lecce Galatina Air Base,Lecce,Italy,LCC,40.239201,18.133301
1465,Pescara International Airport,Pescara,Italy,PSR,42.431702,14.1811
1466,Brindisi – Salento Airport,Brindisi,Italy,BDS,40.6576,17.947001
1468,Lamezia Terme Airport,Lamezia,Italy,SUF,38.905399,16.2423
1469,Catania-Fontanarossa Airport,Catania,Italy,CTA,37.466801,15.0664
1470,Lampedusa Airport,Lampedusa,Italy,LMP,35.497898,12.6181
1471,Pantelleria Airport,Pantelleria,Italy,PNL,36.816502,11.9689
1472,Falcone–Borsellino Airport,Palermo,Italy,PMO,38.175999,13.091
1474,Reggio Calabria Airport,Reggio Calabria,Italy,REG,38.071201,15.6516
1475,Vincenzo Florio Airport Trapani-Birgi,Trapani,Italy,TPS,37.9114,12.488
1476,Sigonella Navy Air Base,Sigonella,Italy,NSY,37.401699,14.9224
1477,Alghero-Fertilia Airport,Alghero,Italy,AHO,40.632099,8.29077
1478,Decimomannu Air Base,Decimomannu,Italy,DCI,39.354198,8.972480000000003
1479,Cagliari Elmas Airport,Cagliari,Italy,CAG,39.251499,9.05428
1480,Olbia Costa Smeralda Airport,Olbia,Italy,OLB,40.898701,9.51763
1481,Tortolì Airport,Tortoli,Italy,TTB,39.9188,9.68298
1484,Malpensa International Airport,Milano,Italy,MXP,45.6306,8.728110000000001
1485,Il Caravaggio International Airport,Bergamo,Italy,BGY,45.673901,9.70417
1486,Turin Airport,Torino,Italy,TRN,45.200802,7.64963
1487,Villanova D'Albenga International Airport,Albenga,Italy,ALL,44.050598,8.12743
1488,Genoa Cristoforo Colombo Airport,Genoa,Italy,GOA,44.4133,8.8375
1489,Milano Linate Airport,Milan,Italy,LIN,45.445099,9.27674
1491,Parma Airport,Parma,Italy,PMF,44.824501,10.2964
1493,Cuneo International Airport,Cuneo,Italy,CUF,44.547001,7.62322
1494,Aviano Air Base,Aviano,Italy,AVB,46.031898,12.596503
1495,Bolzano Airport,Bolzano,Italy,BZO,46.460201,11.3264
1497,Bologna Guglielmo Marconi Airport,Bologna,Italy,BLQ,44.5354,11.2887
1498,Treviso-Sant'Angelo Airport,Treviso,Italy,TSF,45.648399,12.1944
1500,Forlì Airport,Forli,Italy,FRL,44.194801,12.0701
1503,Brescia Airport,Brescia,Italy,VBS,45.428902,10.3306
1504,Trieste–Friuli Venezia Giulia Airport,Ronchi De Legionari,Italy,TRS,45.827499,13.4722
1505,Federico Fellini International Airport,Rimini,Italy,RMI,44.020302,12.6117
1507,Vicenza Airport,Vicenza,Italy,VIC,45.573399,11.5295
1508,Padova Airport,Padova,Italy,QPA,45.395802,11.8479
1509,Verona Villafranca Airport,Villafranca,Italy,VRN,45.395699,10.8885
1510,Venice Marco Polo Airport,Venice,Italy,VCE,45.505299,12.3519
1511,Siena-Ampugnano Airport,Siena,Italy,SAY,43.25630200000001,11.255
1512,Ciampino–G. B. Pastine International Airport,Rome,Italy,CIA,41.7994,12.5949
1514,Leonardo da Vinci–Fiumicino Airport,Rome,Italy,FCO,41.8002778,12.2388889
1516,Marina Di Campo Airport,Marina Di Campo,Italy,EBA,42.7603,10.2394
1517,Latina Air Base,Latina,Italy,QLT,41.5424,12.909
1519,Naples International Airport,Naples,Italy,NAP,40.88600200000001,14.2908
1520,Pisa International Airport,Pisa,Italy,PSA,43.683899,10.3927
1521,Peretola Airport,Florence,Italy,FLR,43.810001,11.2051
1522,Grosseto Air Base,Grosseto,Italy,GRS,42.759701,11.0719
1525,Perugia San Francesco d'Assisi – Umbria International Airport,Perugia,Italy,PEG,43.095901,12.5132
1527,Ljubljana Jože Pučnik Airport,Ljubljana,Slovenia,LJU,46.223701,14.4576
1528,Maribor Airport,Maribor,Slovenia,MBX,46.47990036010742,15.686100006103516
1529,Portoroz Airport,Portoroz,Slovenia,POW,45.4734001159668,13.614999771118164
1536,Kunovice Airport,Kunovice,Czech Republic,UHE,49.02939987182617,17.439699172973633
1537,Karlovy Vary International Airport,Karlovy Vary,Czech Republic,KLV,50.20299911499024,12.914999961853027
1540,Ostrava Leos Janáček Airport,Ostrava,Czech Republic,OSR,49.6963005065918,18.111099243164066
1542,Pardubice Airport,Pardubice,Czech Republic,PED,50.01340103149414,15.73859977722168
1544,Přerov Air Base,Prerov,Czech Republic,PRV,49.42580032348633,17.404699325561527
1545,Václav Havel Airport Prague,Prague,Czech Republic,PRG,50.1008,14.26
1546,Brno-Tuřany Airport,Brno,Czech Republic,BRQ,49.15129852294922,16.694400787353516
1547,Vodochody Airport,Vodochody,Czech Republic,VOD,50.216599,14.3958
1548,Ben Gurion International Airport,Tel-aviv,Israel,TLV,32.011398315429695,34.88669967651367
1549,Beersheba (Teyman) Airport,Beer-sheba,Israel,BEV,31.287000656128,34.722999572754
1552,Eilat Airport,Elat,Israel,ETH,29.56130027770996,34.960098266601555
1553,Ein Yahav Airfield,Eyn-yahav,Israel,EIY,30.621700286865234,35.20330047607422
1554,Haifa International Airport,Haifa,Israel,HFA,32.809398651123054,35.04309844970703
1556,Ben Ya'akov Airport,Rosh Pina,Israel,RPN,32.98099899291992,35.5718994140625
1558,Bar Yehuda Airfield,Metzada,Israel,MTZ,31.32819938659668,35.38859939575195
1559,Nevatim Air Base,Nevatim,Israel,VTM,31.2082996368,35.012298584
1560,Ovda International Airport,Ovda,Israel,VDA,29.94029998779297,34.93579864501953
1562,Ramon Air Base,Ramon,Israel,MIP,30.77610015869141,34.666698455810554
1563,Sde Dov Airport,Tel-aviv,Israel,SDV,32.114700317382805,34.78219985961914
1564,Malta International Airport,Malta,Malta,MLA,35.857498,14.4775
1567,Graz Airport,Graz,Austria,GRZ,46.9911003112793,15.439599990844727
1568,Innsbruck Airport,Innsbruck,Austria,INN,47.260201,11.344
1569,Linz Hörsching Airport,Linz,Austria,LNZ,48.2332,14.1875
1570,Salzburg Airport,Salzburg,Austria,SZG,47.793300628699996,13.0043001175
1571,Vienna International Airport,Vienna,Austria,VIE,48.110298156738004,16.569700241089002
1573,Alverca Air Base,Alverca,Portugal,AVR,38.883301,-9.0301
1574,Santa Maria Airport,Santa Maria (island),Portugal,SMA,36.97140121459961,-25.17060089111328
1575,Bragança Airport,Braganca,Portugal,BGC,41.8578,-6.70713
1576,Beja Airport / Airbase,Beja (madeira),Portugal,BYJ,38.078899,-7.9324
1577,Braga Municipal Aerodrome,Braga,Portugal,BGZ,41.5871009827,-8.445139884949999
1579,Cascais Airport,Cascais,Portugal,CAT,38.724998,-9.35523
1582,Flores Airport,Flores,Portugal,FLW,39.455299377441406,-31.13139915466309
1583,Faro Airport,Faro,Portugal,FAO,37.014400482199996,-7.965909957889999
1584,Graciosa Airport,Graciosa Island,Portugal,GRW,39.092201232910156,-28.029800415039066
1585,Horta Airport,Horta,Portugal,HOR,38.51990127563477,-28.715900421142567
1586,Lajes Airport,Lajes (terceira Island),Portugal,TER,38.761799,-27.090799
1587,Monte Real Air Base,Monte Real,Portugal,QLR,39.828335,-8.8875
1590,João Paulo II Airport,Ponta Delgada,Portugal,PDL,37.7411994934,-25.6979007721
1591,Pico Airport,Pico,Portugal,PIX,38.554298,-28.441299
1592,Portimão Airport,Portimao,Portugal,PRM,37.1493,-8.583960000000001
1593,Francisco de Sá Carneiro Airport,Porto,Portugal,OPO,41.248100280799996,-8.68138980865
1594,Porto Santo Airport,Porto Santo,Portugal,PXO,33.073398590100005,-16.3500003815
1595,Humberto Delgado Airport (Lisbon Portela Airport),Lisbon,Portugal,LIS,38.7813,-9.13592
1596,São Jorge Airport,Sao Jorge Island,Portugal,SJZ,38.66550064086914,-28.175800323486328
1599,Vila Real Airport,Vila Real,Portugal,VRL,41.2743,-7.72047
1600,Aerodromo Goncalves Lobato (Viseu Airport),Viseu,Portugal,VSE,40.725498,-7.88899
1601,Mostar International Airport,Mostar,Bosnia and Herzegovina,OMO,43.282901763916016,17.84589958190918
