"id","Name","City","Country","IATA","Latitude","Longitude"
"8786","Macmillan Pass Airport","","","XMP","63.18109894","-130.2019959"
"7926","  Jacquinot Bay","Malmal","Papua New Guinea","JAQ","-5.6525","151.5069"
"3722","Umbu Mehang Kunda Airport","Waingapu","Indonesia","WGP","-9.66922","120.302002"
"3599","Riverside Municipal Airport","Riverside","United States","RAL","33.95190048","-117.4449997"
"6458","Cochrane Airport","Cochrane","Canada","YCN","49.10559845","-81.01360321"
"1012","Bukavu Kavumu Airport","Bukavu/kavumu","Congo (Kinshasa)","BKY","-2.308979988","28.80879974"
"5437","Nelson Lagoon Airport","Nelson Lagoon","United States","NLG","56.00749969","-161.1600037"
"3371","Wiley Post Will Rogers Memorial Airport","Barrow","United States","BRW","71.285402","-156.766008"
"4674","Lago Argentino Airport","El Calafate","Argentina","ING","-50.336102","-72.248596"
"4435","Kili Airport","Kili Island","Marshall Islands","KIO","5.644515","169.119507"
"8164","ARNHEIM/DEELEN","Hoenderloo","Netherlands","QAR","52.0597","5.8722"
"4012","Joslin Field Magic Valley Regional Airport","Twin Falls","United States","TWF","42.4818","-114.487999"
"1835","Jacmel Airport","Jacmel","Haiti","JAK","18.24110031","-72.51850128"
"8373","ZWARA","Zuwara","Libya","WAX","32.98","12.015"
"220","Cheikh Larbi Tébessi Airport","Tebessa","Algeria","TEE","35.43159866","8.12071991"
"4747","Rivne International Airport","Rivne","Ukraine","RWN","50.60710144","26.14159966"
"9448","Fresno Chandler Executive Airport","Fresno","United States","FCH","36.732399","-119.82"
"3455","Mc Guire Air Force Base","Wrightstown","United States","WRI","40.0155983","-74.59169769"
"1480","Olbia Costa Smeralda Airport","Olbia","Italy","OLB","40.898701","9.51763"
"2937","Jaisalmer Airport","Jaisalmer","India","JSA","26.88870049","70.86499786"
"2671","Alejandro Velasco Astete International Airport","Cuzco","Peru","CUZ","-13.53569984","-71.938797"
"8771","Courtenay Airpark","Courtenay","Canada","YCA","49.6794014","-124.9820023"
"424","Ivalo Airport","Ivalo","Finland","IVL","68.6072998","27.40530014"
"4634","Kalaupapa Airport","Molokai","United States","LUP","21.21100044","-156.973999"
"5842","Yuba County Airport","Yuba City","United States","MYV","39.09780121","-121.5699997"
"4297","Łódź Władysław Reymont Airport","Lodz","Poland","LCJ","51.72190094","19.3980999"
"7784","Caye Caulker                            ","","","CUK","17.7347","-88.0325"
"1823","Limon International Airport","Limon","Costa Rica","LIO","9.957960129","-83.02200317"
"9244","Ioma Airport","Ioma","Papua New Guinea","IOP","-8.3614","147.84"
"4184","Cat Lake Airport","Cat Lake","Canada","YAC","51.72719955","-91.82440186"
"4979","Shijiazhuang Daguocun International Airport","Shijiazhuang","China","SJW","38.28070068","114.6969986"
"3790","Talkeetna Airport","Talkeetna","United States","TKA","62.32049942","-150.0939941"
"8853","Leo Airport","Leo","Burkina Faso","XLU","11.10000038","-2.099999905"
"10659","Windarling Airport","","","WRN","-30.031667","119.39"
"3818","Lijiang Airport","Lijiang","China","LJG","26.68000031","100.2460022"
"9316","Ashley Municipal Airport","Ashley","United States","ASY","46.02389908","-99.3526001"
"7702","  Wanigela","Sarad Mission","Papua New Guinea","AGL","-9.333","149.15"
"10258","Santa Paula Airport","Santa Paula","United States","SZP","34.34719849","-119.060997"
"7900","Ikerasak","Ikerasak","Greenland","IKE","70.4956","-51.3031"
"1284","Metz-Nancy-Lorraine Airport","Metz","France","ETZ","48.98210144","6.251319885"
"7002","Port Hawkesbury Airport","Port Hawkesbury","Canada","YPS","45.65670013","-61.36809921"
"9082","Moba Airport","Moba","Democratic Republic Of The Congo","BDV","-7.066999912","29.78300095"
"6160","Jack Edwards Airport","Gulf Shores","United States","GUF","30.29050064","-87.67179871"
"1743","Cozumel International Airport","Cozumel","Mexico","CZM","20.5223999","-86.92559814"
"9136","Agostinho Neto Airport","Ponta Do Sol","Cape Verde","NTO","17.20280075","-25.09059906"
"3881","Picton Aerodrome","Picton","New Zealand","PCN","-41.34609985","173.9559937"
"8236","Marinda","","Indonesia","RJM","-0.4255","130.7758"
"8791","Okoyo Airport","Oliéme","Republic Of The Congo","OKG","-1.448330045","15.07330036"
"5365","Astoria Regional Airport","Astoria","United States","AST","46.15800095","-123.8789978"
"8551","Chena Hot Springs Airport","","","CEX","65.05180359","-146.0469971"
"4859","Pangsuma Airport","Putussibau-Borneo Island","Indonesia","PSU","0.835578024","112.9369965"
"9111","Gulgubip Airport","Golgubip","Papua New Guinea","GLP","-5.2808","141.5411"
"7772","Chicken","Chicken","United States","CKX","64.0713","-141.9523"
"4213","Waskaganish Airport","Waskaganish","Canada","YKQ","51.47330093","-78.75830078"
"8223","AIX-LES MILLES","Aix-En-Provence","France","QXB","43.5017","5.3708"
"10295","Varandey Airport","Varandey","Russia","VRI","68.848503","58.201401"
"2421","Marechal Rondon Airport","Cuiaba","Brazil","CGB","-15.65289974","-56.11669922"
"3326","Tinker Air Force Base","Oklahoma City","United States","TIK","35.41469955","-97.38659668"
"10313","Kamarata Airport","Uruyén","Venezuela","KTV","5.75","-62.41600037"
"278","Tahoua Airport","Tahoua","Niger","THZ","14.8757","5.265359879"
"10072","Sissano Airport","Sissano","Papua New Guinea","SIZ","-2.999444444","142.0445"
"8117","Contadora                               ","Saboga","Panama","OTD","8.617","-79.033"
"9090","Gandajika Airport","Gandajika","Democratic Republic Of The Congo","GDJ","-6.733","23.950001"
"8825","Chitina Airport","Chitina","United States","CXC","61.582901","-144.427002"
"8473","Delma Island","","","ZDY","24.5031","52.3358"
"816","Overberg Airport","Overberg","South Africa","OVG","-34.55490112","20.2507"
"5632","Chakcharan Airport","Chaghcharan","Afghanistan","CCN","34.53300095","65.26699829"
"10572","Minlaton Airport","Minlaton","Australia","XML","-34.75","137.5330048"
"8314","THAKHEK","Thakhek","Laos","THK","17.3969","104.8067"
"10237","Taguatinga Airport","","Brazil","QHN","-12.43388939","-46.40055466"
"2182","Matsumoto Airport","Matsumoto","Japan","MMJ","36.16680145","137.9230042"
"10585","Mittebah Airport","","","MIY","-18.8093","137.0815"
"9419","Mumias Airport","Mumias","Kenya","MUM","0.355399","34.528234"
"6816","Kagi Airport","Kagi","Papua New Guinea","KGW","-9.135916667","147.6694444"
"9445","Farmington Regional Airport","Farmington","United States","FAM","37.76110077","-90.4285965"
"8942","Mossendjo Airport","Mossendjo","Republic Of The Congo","MSX","-2.950000048","12.69999981"
"1257","Royan-Médis Airport","Royan","France","RYN","45.62810135","-0.972500026"
"7610","Sasereme Airport","Sasereme","Papua New Guinea","TDS","-7.6217","142.868"
"10624","Roseberth Airport","","","RSB","-25.83329964","139.6499939"
"7016","Thicket Portage Airport","Thicket Portage","Canada","YTD","55.31890106","-97.70780182"
"638","Kristiansund Airport (Kvernberget)","Kristiansund","Norway","KSU","63.11180115","7.824520111"
"2662","Rodríguez Ballón International Airport","Arequipa","Peru","AQP","-16.34110069","-71.58309937"
"8124","PAKSE AIRFIELD","Pakxé","Laos","PAK","15.1333","105.7833"
"2100","Dubai International Airport","Dubai","United Arab Emirates","DXB","25.25279999","55.36439896"
"2117","Mangla Airport","Mangla","Pakistan","XJM","33.05009842","73.63839722"
"4190","Uranium City Airport","Uranium City","Canada","YBE","59.56140137","-108.4810028"
"6405","Zhytomyr Airport","Zhytomyr","Ukraine","ZTR","50.270556","28.738611"
"10311","Krakor Airport","Krakor","Cambodia","KZD","12.5385","104.1486"
"10404","Sungai Tiang Airport","","Malaysia","SXT","4.33027792","102.3949966"
"8549","Aiome Airport","Aiome","Papua New Guinea","AIE","-5.145699978","144.7307003"
"9413","Angama Airport","Kawai","Kenya","ANA","-1.27156","34.955513"
"25","Kugaaruk Airport","Pelly Bay","Canada","YBB","68.534401","-89.808098"
"1586","Lajes Airport","Lajes (terceira Island)","Portugal","TER","38.761799","-27.090799"
"9335","Brookings Regional Airport","Brookings","United States","BKX","44.304798","-96.816902"
"6173","Grabtsevo Airport","Kaluga","Russia","KLF","54.54999924","36.3666687"
"10001","Tabuaeran Island Airport","Napari","Kiribati","TNV","3.89944005","-159.3890076"
"10013","Arawa Airport","Arawa","Papua New Guinea","RAW","-6.220555556","155.5713889"
"2534","Pichoy Airport","Valdivia","Chile","ZAL","-39.65000153","-73.08609772"
"8463","TERRACE BAY","","Canada","YTJ","48.8133","-87.0994"
"6009","Vinnytsia/Gavyryshivka Airport","Vinnitsa","Ukraine","VIN","49.242531","28.613778"
"1475","Vincenzo Florio Airport Trapani-Birgi","Trapani","Italy","TPS","37.9114","12.488"
"5406","Metlakatla Seaplane Base","Metakatla","United States","MTM","55.131001","-131.578003"
"831","Robertson Airport","Robertson","South Africa","ROD","-33.81219864","19.90279961"
"9442","Eveleth Virginia Municipal Airport","Eveleth","United States","EVM","47.42509842","-92.49849701"
"9772","Médouneu Airport","Oveng","Equatorial Guinea","MDV","1.0085","10.7552"
"8815","Cape Orford Airport","Ralman","Papua New Guinea","CPI","-5.448333333","152.0819444"
"9891","Franz Josef Aerodrome","Franz Josef / Waiau","New Zealand","WHO","-43.36309814","170.1340027"
"1346","Charles de Gaulle International Airport","Paris","France","CDG","49.012798","2.55"
"3041","Myitkyina Airport","Myitkyina","Burma","MYT","25.38360023","97.35189819"
"8372","ALBEMARLE / STANLEY COUNTY","Badin","United States","VUJ","35.4167","-80.1508"
"9117","Simenti Airport","Sementi","Senegal","SMY","13.04679966","-13.29539967"
"3753","Panevėžys Air Base","Panevezys","Lithuania","PNV","55.72940063","24.46080017"
"3648","Tyler Pounds Regional Airport","Tyler","United States","TYR","32.35409927","-95.40239716"
"10137","Urrao Airport","","Colombia","URR","6.32883","-76.1425"
"3789","Surat Thani Airport","Surat Thani","Thailand","URT","9.132599831","99.13559723"
"1285","Bastia-Poretta Airport","Bastia","France","BIA","42.55270004","9.483730316"
"6103","Podkamennaya Tunguska Airport","Bor","Russia","TGP","61.589699","89.994003"
"9901","Darwaz Airport","Kevron","Tajikistan","DAZ","38.461708","70.881608"
"6911","Boende Airport","Boende","Congo (Kinshasa)","BNB","-0.216999993","20.85000038"
"3491","Laredo International Airport","Laredo","United States","LRD","27.54380035","-99.46160126"
"9405","Dansville Municipal Airport","Dansville","United States","DSV","42.57089996","-77.71309662"
"7555","Shirdi Airport","Shirdi","India","SAG","19.688611","74.378889"
"110","Quebec Jean Lesage International Airport","Quebec","Canada","YQB","46.7911","-71.393303"
"3292","Huron Regional Airport","Huron","United States","HON","44.3852005","-98.22850037"
"9193","Masasi Airport","Masasi","Tanzania","XMI","-10.7329998","38.76699829"
"2038","Bandar Lengeh Airport","Bandar Lengeh","Iran","BDH","26.53199959","54.82479858"
"1102","Hurghada International Airport","Hurghada","Egypt","HRG","27.17830086","33.79940033"
"3702","Hang Nadim International Airport","Batam","Indonesia","BTH","1.121029973","104.1190033"
"122","North Battleford Airport","North Battleford","Canada","YQW","52.76919937","-108.2440033"
"10005","Param Airport","Nepesi","Papua New Guinea","PPX","-9.99","149.477"
"10322","Gurue Airport","Gurue","Mozambique","VJQ","-15.5062","36.9904"
"9561","Maury County Airport","Mount Pleasant","United States","MRC","35.55410004","-87.17890167"
"1418","Kithira Airport","Kithira","Greece","KIT","36.27429962","23.0170002"
"792","Harrismith Airport","Harrismith","South Africa","HRS","-28.23509979","29.10619926"
"8241","RAMONA","Ramona","United States","RNM","33.0392","-116.9152"
"8036","MERCEDES","","Brazil","MDX","-29.2261","-53.0844"
"9912","Bahregan Airport","Imam Hassan","Iran","IAQ","29.840099","50.272701"
"242","Cadjehoun Airport","Cotonou","Benin","COO","6.357230186","2.384350061"
"4870","Barcaldine Airport","Barcaldine","Australia","BCI","-23.56529999","145.3070068"
"492","Alderney Airport","Alderney","Guernsey","ACI","49.706104","-2.21472"
"1559","Nevatim Air Base","Nevatim","Israel","VTM","31.20829964","35.01229858"
"3680","Great Falls International Airport","Great Falls","United States","GTF","47.48199844","-111.3710022"
"5009","Pu'er Simao Airport","Simao","China","SYM","22.793301","100.959"
"9138","Bemichi Airport","Santa Cruz","Guyana","BCG","7.699999809","-59.16666031"
"7744","BOUAR","Bouar","Central African Republic","BOP","5.9667","15.6333"
"4054","Sabiha Gökçen International Airport","Istanbul","Turkey","SAW","40.89860153","29.30920029"
"8133","Port Harcourt City","Port Harcourt","Nigeria","PHG","4.85","7.0167"
"8202","PECS/POGANY","Pogány","Hungary","QPJ","45.9892","18.2421"
"2055","Mehrabad International Airport","Teheran","Iran","THR","35.68920135","51.31340027"
"5224","Montrose Regional Airport","Montrose CO","United States","MTJ","38.50979996","-107.8939972"
"1054","Saniat R'mel Airport","Tetouan","Morocco","TTU","35.59429932","-5.320020199"
"10275","Dongsha Island (Pratas Island) Airport","","","DSX","20.7066","116.721001"
"7014","Grand Forks Airport","Grand Forks","Canada","ZGF","49.0155983","-118.4309998"
"395","Braunschweig-Wolfsburg Airport","Braunschweig","Germany","BWE","52.319199","10.5561"
"2290","Awang Airport","Cotabato","Philippines","CBO","7.165239811","124.2099991"
"4701","Capitán Av. Selin Zeitun Lopez Airport","Riberalta","Bolivia","RIB","-11.0","-66.0"
"10270","Tapeta Airport","Tapeta","Liberia","TPT","6.4948","-8.873"
"5547","Novo Aripuanã Airport","Novo Aripuana","Brazil","NVP","-5.118030071","-60.36489868"
"1841","Jaime Gonzalez Airport","Cienfuegos","Cuba","CFG","22.14999962","-80.41419983"
"6862","Oryol Yuzhny Airport","Oakley","United States","OEL","52.93470001","36.00220108"
"2429","Fernando de Noronha Airport","Fernando Do Noronha","Brazil","FEN","-3.85493","-32.423302"
"8375","CASTRO/GAMBOA","Castro","Chile","WCA","-42.485","-73.7722"
"1062","Kédougou Airport","Kedougou","Senegal","KGG","12.57229996","-12.22029972"
"7782","CLINTON/SAMPSON","Clinton","United States","CTZ","34.975","-78.3656"
"4708","Alferez Fap David Figueroa Fernandini Airport","Huánuco","Peru","HUU","-9.878809929","-76.20480347"
"1941","Dunedin Airport","Dunedin","New Zealand","DUD","-45.92810059","170.197998"
"4361","Kenema Airport","Kenema","Sierra Leone","KEN","7.891290188","-11.17660046"
"189","Armstrong Airport","Armstrong","Canada","YYW","50.29029846","-88.90969849"
"2883","Netaji Subhash Chandra Bose International Airport","Kolkata","India","CCU","22.65469933","88.44670105"
"7629","Istanbul Airport","Istanbul","Turkey","IST","41.275278","28.751944"
"9401","Kandep Airport","Kandep","Papua New Guinea","KDP","-5.840611111","143.5072222"
"9352","Brawley Municipal Airport","Brawley","United States","BWC","32.99290085","-115.5169983"
"10505","Finley Airport","Finley","Australia","FLY","-35.66669846","145.5500031"
"1321","Le Castellet Airport","Le Castellet","France","CTT","43.25249863","5.785190105"
"3927","Cà Mau Airport","Ca Mau","Vietnam","CAH","9.177667","105.177778"
"6324","Lima Allen County Airport","Lima","United States","AOH","40.706902","-84.026703"
"5496","Charlotte Amalie Harbor Seaplane Base","Charlotte Amalie","Virgin Islands","SPB","18.33860016","-64.94069672"
"9524","Triangle North Executive Airport","Louisburg","United States","LFN","36.0233","-78.330299"
"2959","Janakpur Airport","Janakpur","Nepal","JKR","26.70879936","85.92240143"
"10509","Gamboola Airport","Wrotham","Australia","GBP","-16.54999924","143.6670074"
"3495","Dyess Air Force Base","Abilene","United States","DYS","32.42079926","-99.854599"
"5043","Jiamusi Airport","Jiamusi","China","JMU","46.84339905","130.4649963"
"6050","Hotel Transamérica Airport","Una","Brazil","UNA","-15.35519981","-38.99900055"
"8491","XXX","New Haven","Guyana","ZVE","6.0833","-58.1333"
"661","Katowice International Airport","Katowice","Poland","KTW","50.4743","19.08"
"3762","Batumi International Airport","Batumi","Georgia","BUS","41.61029816","41.59970093"
"2910","Shah Mokhdum Airport","Rajshahi","Bangladesh","RJH","24.43720055","88.61650085"
"8689","Tsewi Airport","Kwasimerga","Papua New Guinea","TSW","-7.0695","146.1272"
"2776","Khabarovsk-Novy Airport","Khabarovsk","Russia","KHV","48.52799988","135.1880035"
"555","RAF Brize Norton","Brize Norton","United Kingdom","BZZ","51.75","-1.58362"
"1517","Latina Air Base","Latina","Italy","QLT","41.5424","12.909"
"8180","GUAIRA","","Brazil","QGA","-24.0792","-54.1875"
"3525","Cape Cod Coast Guard Air Station","Falmouth","United States","FMH","41.65840149","-70.52140045"
"5144","Kangra Airport","Kangra","India","DHM","32.1651001","76.26339722"
"5691","Douglas Municipal Airport","Douglas","United States","DGL","31.34259987","-109.5059967"
"882","Bafoussam Airport","Bafoussam","Cameroon","BFX","5.536920071","10.35459995"
"8821","Fontanges Airport","","Canada","YFG","54.55390167","-71.1733017"
"4034","Ratanakiri Airport","Ratanakiri","Cambodia","RBE","13.72999954","106.9869995"
"9004","Camaxilo Airport","Camaxilo","Angola","CXM","-8.373609543","18.92359924"
"9687","Twentynine Palms Airport","Twentynine Palms","United States","TNP","34.133901","-115.947347"
"2670","Capitan Montes Airport","Talara","Peru","TYL","-4.576640129","-81.25409698"
"6031","Redenção Airport","Redencao","Brazil","RDC","-8.033289909","-49.97990036"
"3470","Dallas Fort Worth International Airport","Dallas-Fort Worth","United States","DFW","32.896801","-97.038002"
"91","Maniwaki Airport","Maniwaki","Canada","YMW","46.27280045","-75.99060059"
"3809","Cherry Capital Airport","Traverse City","United States","TVC","44.74140167","-85.5821991"
"7984","Point Baker","Point Baker","United States","KPB","56.3519","-133.6226"
"6900","Cáceres Airport","Caceres","Brazil","CCX","-16.04360008","-57.62990189"
"9873","Nangade Airport","Nangade","Mozambique","NND","-11.073","39.68"
"6328","Georgetown County Airport","Georgetown","United States","GGE","33.31169891","-79.31960297"
"8252","Saatut","Saattut","Greenland","SAE","70.8117","-51.6333"
"5000","Yulin Yuyang Airport","Yulin","China","UYN","38.35971","109.590927"
"2126","Pasni Airport","Pasni","Pakistan","PSI","25.29050064","63.3451004"
"4062","Mehamn Airport","Mehamn","Norway","MEH","71.02970123","27.82670021"
"8313","Thanh Hoe","Thành Phố Thanh Hoá","Vietnam","THD","19.8075","105.7764"
"3087","Pinang Kampai Airport","Dumai","Indonesia","DUM","1.60919","101.433998"
"5476","Bonnyville Airport","Bonnyville","Canada","YBY","54.304199","-110.744003"
"7278","Wangaratta Airport","","Australia","WGT","-36.41579819","146.3070068"
"6391","Termas de Río Hondo international Airport","Rio Hondo","Argentina","RHD","-27.4966","-64.93595"
"4798","Orsk Airport","Orsk","Russia","OSW","51.07249832","58.59560013"
"9856","Chokwé Airport","Chokwé","Mozambique","TGS","-24.52059937","32.96530151"
"9208","Batom Airport","","Indonesia","BXM","-4.166669846","140.8500061"
"2263","Gangneung Airport (K-18)","Kangnung","South Korea","KAG","37.753601","128.943915"
"10513","Ginbata Airport","","","GBW","-22.5812","120.03553"
"3432","Wright AAF (Fort Stewart)/Midcoast Regional Airport","Wright","United States","LIY","31.889099","-81.562303"
"9939","Andre Maggi Airport","","Brazil","OTT","-9.898611","-58.581944"
"1242","Angoulême-Brie-Champniers Airport","Angouleme","France","ANG","45.72919846","0.221456006"
"9951","San Miguel Airport","San Miguel, Panamá Province","Panama","NMG","8.4566","-78.9339"
"3106","Sultan Ismail Petra Airport","Kota Bahru","Malaysia","KBR","6.16685009","102.2929993"
"1709","Cibao International Airport","Santiago","Dominican Republic","STI","19.40609932","-70.60469818"
"602","Esbjerg Airport","Esbjerg","Denmark","EBJ","55.525902","8.5534"
"6042","Apalachicola Regional Airport","Apalachicola","United States","AAF","29.72750092","-85.02749634"
"9540","Malden Regional Airport","Malden","United States","MAW","36.6006012","-89.99220276"
"4855","Kudat Airport","Kudat","Malaysia","KUD","6.922500134","116.8359985"
"10607","Oenpelli Airport","Gunbalanya","Australia","OPI","-12.32499981","133.0059967"
"4373","Dembidollo Airport","Dembidollo","Ethiopia","DEM","8.553999901","34.85800171"
"4542","Labasa Airport","Lambasa","Fiji","LBS","-16.4666996","179.3399963"
"10238","São Miguel do Araguaia Airport","","Brazil","SQM","-13.33129978","-50.19760132"
"9066","Oshakati Airport","Oshakati","Namibia","OHI","-17.797","15.6993"
"8979","Ngoma Airport","Ngoma","Zambia","ZGM","-15.96580029","25.93330002"
"2781","Yuzhno-Sakhalinsk Airport","Yuzhno-sakhalinsk","Russia","UUS","46.88869858","142.7180023"
"6535","Bingöl Çeltiksuyu Airport","Bingol","Turkey","BGG","38.85926056","40.59596252"
"8526","Reese Airpark","Reese Center","United States","REE","33.59030151","-102.0370026"
"1387","EuroAirport Basel-Mulhouse-Freiburg Airport","Mulhouse","France","BSL","47.59","7.5291667"
"4226","Inukjuak Airport","Inukjuak","Canada","YPH","58.47190094","-78.07689667"
"3828","Central Wisconsin Airport","Wassau","United States","CWA","44.77759933","-89.66680145"
"4885","Coober Pedy Airport","Coober Pedy","Australia","CPD","-29.04000092","134.720993"
"8884","Guiglo Airport","Guiglo","Côte D'Ivoire","GGO","6.534711","-7.526847"
"918","Fianarantsoa Airport","Fianarantsoa","Madagascar","WFI","-21.4416008","47.11169815"
"10299","Ustupo Airport","Ustupo","Panama","UTU","9.1283","-77.9337"
"4022","Barnstable Municipal Boardman Polando Field","Barnstable","United States","HYA","41.66930008","-70.28040314"
"7887","HOLZDORF","Schönewalde","Germany","HZD","51.7678","13.1677"
"3318","Nantucket Memorial Airport","Nantucket","United States","ACK","41.25310135","-70.06020355"
"6313","Lompoc Airport","Lompoc","United States","LPC","34.66559982","-120.4680023"
"613","Skive Airport","Skive","Denmark","SQW","56.55020142","9.172980309"
"1715","Goloson International Airport","La Ceiba","Honduras","LCE","15.7425","-86.852997"
"3635","Kaneohe Bay MCAS (Marion E. Carl Field) Airport","Kaneohe Bay","United States","NGF","21.45050049","-157.7680054"
"4338","Mouilla Ville Airport","Mouila","Gabon","MJL","-1.84513998","11.05669975"
"8717","Willmar Municipal -John L Rice Field","Willmar","United States","ILL","45.11769867","-95.13040161"
"10408","Atauro Airport","","Timor-Leste","AUT","-8.243133","125.606378"
"8580","Los Menucos Airport","Los Menucos","Argentina","LMD","-40.817699","-68.074699"
"5922","Ye Airport","Ye","Burma","XYE","15.30000019","97.86699677"
"423","Kitee Airport","Kitee","Finland","KTQ","62.1661","30.073601"
"8726","Búðardalur Airport","Búðardalur","Iceland","BQD","65.07530212","-21.8003006"
"3367","Buckley Air Force Base","Buckley","United States","BFK","39.7016983","-104.7519989"
"4284","Sindal Airport","Sindal","Denmark","CNL","57.503502","10.2294"
"1967","Woodbourne Airport","Woodbourne","New Zealand","BHE","-41.5182991","173.8699951"
"10242","Aishalton Airport","Aishalton","Guyana","AHL","2.486530066","-59.31340027"
"389","Zweibrücken Airport","Zweibruecken","Germany","ZQW","49.2094","7.40056"
"1604","Bacău Airport","Bacau","Romania","BCM","46.52190018","26.9102993"
"6334","Beech Factory Airport","Wichita","United States","BEC","37.69449997","-97.21499634"
"73","Atikokan Municipal Airport","Atikokan","Canada","YIB","48.77389908","-91.63860321"
"135","Nanisivik Airport","Nanisivik","Canada","YSR","72.982201","-84.613602"
"7768","JACKSON JULIAN CARROLL","Jackson","United States","CIN","37.5939","-83.3172"
"3360","Valley International Airport","Harlingen","United States","HRL","26.22850037","-97.65440369"
"4511","Jaqué Airport","Jaqué","Panama","JQE","7.517779827","-78.15720367"
"10348","Kyauktu Airport","Kyaukhtu","Myanmar (Burma)","KYT","21.39999962","94.13330078"
"8886","Ouango Fitini Airport","Ouangofétini","Côte D'Ivoire","OFI","9.600000381","-4.050000191"
"9869","Onotoa Airport","Tanyah","Kiribati","OOT","-1.796110034","175.526001"
"6828","Fort Mackay / Horizon Airport","Wood Buffalo","Canada","HZP","57.38169861","-111.7009964"
"5313","Spirit of St Louis Airport","Null","United States","SUS","38.66210175","-90.65200043"
"10596","Nambucca Heads Airport","Nambucca Heads","Australia","NBH","-30.64999962","153.0"
"3181","Pyongyang Sunan International Airport","Pyongyang","North Korea","FNJ","39.224098","125.669998"
"7886","Hollis","Hollis","United States","HYL","55.4816","-132.6461"
"8023","  Qala I Naw","Qala-E-Naw","Afghanistan","LQN","34.9875","63.1183"
"5119","Kirovsk-Apatity Airport","Apatity","Russia","KVK","67.46330261","33.5882988"
"6463","Inverell Airport","Inverell","Australia","IVR","-29.88829994","151.1439972"
"3352","Joint Base Andrews","Camp Springs","United States","ADW","38.810799","-76.866997"
"5022","Sunan Shuofang International Airport","Wuxi","China","WUX","31.49440002","120.4290009"
"3492","Elmendorf Air Force Base","Anchorage","United States","EDF","61.25099945","-149.8070068"
"5658","Yasouj Airport","Yasuj","Iran","YES","30.70050049","51.54510117"
"5606","Inishmaan Aerodrome","Inishmaan","Ireland","IIA","53.0929985","-9.568059921"
"5418","Kobuk Airport","Kobuk","United States","OBU","66.91230011","-156.8970032"
"1978","Herat Airport","Herat","Afghanistan","HEA","34.20999908","62.22829819"
"2190","Hakodate Airport","Hakodate","Japan","HKD","41.77000046","140.8220062"
"1225","Valenciennes-Denain Airport","Valenciennes","France","XVS","50.32580185","3.46126008"
"8502","Metropolitan Airport","Palmer","United States","PMX","42.22330093","-72.31140137"
"10104","Solita Airport","","","SOH","3.016667","-71.75"
"6441","Bijie Feixiong Airport","Bijie","China","BFJ","27.267066","105.472097"
"4914","Kubin Airport","Kubin","Australia","KUG","-10.22500038","142.2180023"
"914","Vohimarina Airport","Vohemar","Madagascar","VOH","-13.37580013","50.00279999"
"2088","King Hussein Air College","Mafraq","Jordan","OMF","32.3564","36.259201"
"710","Sundsvall-Härnösand Airport","Sundsvall","Sweden","SDL","62.52809906","17.44389915"
"123","Gander International Airport","Gander","Canada","YQX","48.93690109","-54.56809998"
"3072","Babo Airport","Babo","Indonesia","BXB","-2.532239914","133.4389954"
"5412","Akhiok Airport","Akhiok","United States","AKK","56.93870163","-154.1829987"
"4688","San Cristóbal Airport","San Cristóbal","Ecuador","SCY","-0.910206","-89.617401"
"4025","Morgantown Municipal Walter L. Bill Hart Field","Morgantown","United States","MGW","39.64289856","-79.91629791"
"9040","Salima Airport","Senga","Malawi","LMB","-13.7558927","34.58418846"
"563","RAF Honington","Honington","United Kingdom","BEQ","52.34260178","0.772939026"
"8602","Peppimenarti Airport","Peppimenarti","Australia","PEP","-14.14420033","130.0910034"
"7818","EPHRATA MUNI","Ephrata","United States","EPH","47.3075","-119.5158"
"7354","Humberto Ghizzo Bortoluzzi Regional Airport","Jaguaruna","Brazil","JJG","-28.6753","-49.0596"
"5066","Jefferson City Memorial Airport","Jefferson City","United States","JEF","38.59120178","-92.15609741"
"4946","Paraburdoo Airport","Paraburdoo","Australia","PBO","-23.17110062","117.7450027"
"8796","Laurie River Airport","","Canada","LRQ","56.24860001","-101.3040009"
"9861","Pukapuka Island Airport","Roto","Cook Islands","PZK","-10.9145","-165.8393"
"10612","Ord River Airport","","","ODR","-17.34079933","128.9120026"
"8556","Candle 2 Airport","Candle","United States","CDL","65.90769959","-161.9259949"
"6351","Moomba Airport","Moomba","Australia","MOO","-28.09939957","140.1970062"
"4657","Camiguin Airport","Camiguin","Philippines","CGM","9.253520012","124.7070007"
"53","Inuvik Mike Zubko Airport","Inuvik","Canada","YEV","68.30419922","-133.4830017"
"6327","Beaver County Airport","Beaver Falls","United States","BFP","40.77249908","-80.3914032"
"4346","Swakopmund Airport","Swakopmund","Namibia","SWP","-22.66189957","14.56809998"
"6168","Greater Cumberland Regional Airport","Cumberland","United States","CBE","39.61539841","-78.7609024"
"10610","Oodnadatta Airport","Oodnadatta","Australia","ODD","-27.56170082","135.4470062"
"8040","Monteagudo","La Herradura","Bolivia","MHW","-19.4925","-63.5745"
"1772","El Tajín National Airport","Poza Rico","Mexico","PAZ","20.60269928","-97.46080017"
"5155","Chaoyang Airport","Chaoyang","China","CHG","41.538101","120.434998"
"2619","Alfonso López Pumarejo Airport","Valledupar","Colombia","VUP","10.435","-73.2495"
"6036","Carauari Airport","Carauari","Brazil","CAF","-4.871520042","-66.89749908"
"1720","Toncontín International Airport","Tegucigalpa","Honduras","TGU","14.06089973","-87.21720123"
"2041","Lavan Island Airport","Lavan Island","Iran","LVP","26.81030083","53.35630035"
"9739","Belluno Airport","","Italy","BLX","46.166549","12.250389"
"2769","Pavlodar Airport","Pavlodar","Kazakhstan","PWQ","52.19499969","77.07389832"
"2852","Jamnagar Airport","Jamnagar","India","JGA","22.46549988","70.01260376"
"9264","Gansner Field","Quincy","United States","GNF","39.943902","-120.945"
"8292","Fonte Boa (SWOB)","","Brazil","SWOB","-2.5336","-66.0672"
"2363","El Bolson Airport","El Bolson","Argentina","EHL","-41.94319916","-71.53230286"
"258","Akure Airport","Akure","Nigeria","AKR","7.246739864","5.301010132"
"7932","Sao Joao Del Rei","","Brazil","JDR","-21.0863","-44.2263"
"6846","Galesburg Municipal Airport","Galesburg","United States","GBG","40.93799973","-90.43109894"
"7955","Coffman Cove","Coffman Cove","United States","KCC","56.0148","-132.8339"
"10699","Chongqing Wushan Airport","","China","WSK","31.06896","109.708958"
"7174","Las Breas Airport","Taltal","Chile","TTC","-25.56430054","-70.37590027"
"1915","Takapoto Airport","Takapoto","French Polynesia","TKP","-14.70950031","-145.2460022"
"2159","Pohnpei International Airport","Pohnpei","Micronesia","PNI","6.985099792","158.2089996"
"7133","Coronel Enrique Soto Cano Air Base","Comayagua","Honduras","XPL","14.3824","-87.621201"
"9471","Gooding Municipal Airport","Gooding","United States","GNG","42.91719818","-114.7649994"
"9735","Les Sables-d'Olonne Talmont Airport","Les Sables-D'Olonne","France","LSO","46.47689819","-1.722779989"
"9753","Munbil Airport","Bogut","Papua New Guinea","LNF","-4.855941","141.220165"
"2043","Sanandaj Airport","Sanandaj","Iran","SDG","35.2458992","47.00920105"
"1686","Nis Airport","Nis","Serbia","INI","43.337299","21.853701"
"5324","Interlaken Air Base","Interlaken","Switzerland","ZIN","46.6766014","7.8790798"
"5349","Mc Cook Ben Nelson Regional Airport","McCook","United States","MCK","40.20629883","-100.5920029"
"1489","Milano Linate Airport","Milan","Italy","LIN","45.445099","9.27674"
"10565","Millicent Airport","Millicent","Australia","MLR","-37.58359909","140.3659973"
"6088","Daniel Field","Augusta","United States","DNL","33.46649933","-82.03939819"
"8638","Imane Airport","Imane","Papua New Guinea","IMN","-6.7524","146.1072"
"9760","Lebak Rural Airport","Lebak","Philippines","LWA","6.6739","124.0581"
"5076","Oban Airport","North Connel","United Kingdom","OBN","56.46350098","-5.399670124"
"3785","Qasigiannguit Heliport","Qasigiannguit","Greenland","JCH","68.82281555","-51.17344737"
"4153","Qeqertarsuaq Heliport","Qeqertarsuaq Airport","Greenland","JGO","69.25118199","-53.51487637"
"954","Lichinga Airport","Lichinga","Mozambique","VXC","-13.274","35.2663"
"4730","Nakhchivan Airport","Nakhchivan","Azerbaijan","NAJ","39.18880081","45.45840073"
"9984","Chungribu Airport","Chungrebu","Papua New Guinea","CVB","-4.806620121","144.7149963"
"9535","Lawrenceville Vincennes International Airport","Lawrenceville","United States","LWV","38.7643013","-87.60549927"
"2666","Cadete FAP Guillermo Del Castillo Paredes Airport","Tarapoto","Peru","TPP","-6.508739948","-76.37319946"
"10665","Wollogorang Airport","","","WLL","-17.2199","137.93453"
"6372","Ust-Nera Airport","Ust-Nera","Russia","USR","64.55000305","143.1150055"
"7071","Murray Field","Eureka","United States","EKA","40.80339813","-124.112999"
"4115","Shun Tak Heliport","Hong Kong","Hong Kong","HHP","22.28937149","114.152153"
"1007","Lisala Airport","Lisala","Congo (Kinshasa)","LIQ","2.17066","21.496901"
"5303","Brigham City Regional Airport","Brigham City","United States","BMC","41.552399","-112.061996"
"4670","Roxas Airport","Roxas City","Philippines","RXS","11.59770012","122.7519989"
"8931","Thaba Nchu Tar Airport","Groot Hoek","South Africa","TCU","-29.31780052","26.82279968"
"2851","Jabalpur Airport","Jabalpur","India","JLR","23.17779922","80.05200195"
"10437","Barkly Downs Airport","","","BKP","-20.49583333","138.4747222"
"10668","Wee Waa Airport","Wee Waa","Australia","WEW","-30.25830078","149.4080048"
"4487","Kahramanmaraş Airport","Kahramanmaras","Turkey","KCM","37.53882599","36.95352173"
"9372","Cairo Regional Airport","Cairo","United States","CIR","37.0644989","-89.21959686"
"2058","Bandar Abbas International Airport","Bandar Abbas","Iran","BND","27.21829987","56.37779999"
"4917","Lord Howe Island Airport","Lord Howe Island","Australia","LDH","-31.53829956","159.0769959"
"10550","Lawn Hill Airport","","","LWH","-18.56830025","138.6349945"
"9149","Nejjo Airport","Jarso","Ethiopia","NEJ","9.55","35.466995"
"4577","Uléi Airport","Ambryn Island","Vanuatu","ULB","-16.3297","168.3011"
"9032","Bol Airport","Berim","Chad","OTC","13.44330025","14.73939991"
"3742","Monterey Peninsula Airport","Monterey","United States","MRY","36.5870018","-121.8430023"
"7781","CALVERTON/NAVAL WEAPONS INDUS.","Calverton","United States","CTO","40.9067","-72.7917"
"9390","Kickapoo Downtown Airport","Wichita Falls","United States","KIP","33.85779953","-98.49040222"
"10625","Rutland Plains Airport","Kowanyama","Australia","RTP","-15.64330006","141.8430023"
"4229","Powell River Airport","Powell River","Canada","YPW","49.83420181","-124.5"
"10630","South Galway Airport","","","ZGL","-25.68330002","142.1080017"
"680","Gothenburg City Airport","Gothenborg","Sweden","GSE","57.7747","11.8704"
"10694","Guanghan Airport","Deyang","China","GHN","30.9485","104.3296"
"7295","Bogorodskoye Airport","Bogorodskoe","Russia","BQG","52.38","140.448"
"6254","Alexander Field South Wood County Airport","Wisconsin Rapids","United States","ISW","44.36029816","-89.83899689"
"5367","Emmonak Airport","Emmonak","United States","EMK","62.78609848","-164.4909973"
"2823","Bukhara Airport","Bukhara","Uzbekistan","BHK","39.77500153","64.48329926"
"4044","Guarani International Airport","Ciudad del Este","Paraguay","AGT","-25.454516","-54.842682"
"71","Hay River / Merlyn Carter Airport","Hay River","Canada","YHY","60.83969879","-115.7829971"
"2650","Comandante FAP German Arias Graziani Airport","Anta","Peru","ATA","-9.347439766","-77.5983963"
"4443","Lancaster Airport","Lancaster","United States","LNS","40.12170029","-76.2960968"
"10360","Mindiptana Airport","","Indonesia","MDP","-5.75","140.3670044"
"10048","Jacarepaguá - Roberto Marinho Airport","","Brazil","RRJ","-22.986773","-43.372194"
"1897","Vava'u International Airport","Vava'u","Tonga","VAV","-18.58530045","-173.9620056"
"1747","Don Miguel Hidalgo Y Costilla International Airport","Guadalajara","Mexico","GDL","20.52179909","-103.310997"
"10217","Treinta y Tres Airport","Treinta Y Tres","Uruguay","TYT","-33.195714","-54.347246"
"3263","Phoenix Sky Harbor International Airport","Phoenix","United States","PHX","33.43429947","-112.012001"
"598","Waterford Airport","Waterford","Ireland","WAT","52.18719864","-7.086959839"
"7735","Big Creek","Pilot Point","United States","BIC","57.66","-157.58"
"1810","Panama Pacific International Airport","Howard","Panama","BLB","8.91479","-79.599602"
"9755","Francisco Primo de Verdad y Ramos Airport","Santa Rosa","Mexico","LOM","21.258983","-101.943758"
"238","Laghouat Airport","Laghouat","Algeria","LOO","33.76440048","2.928339958"
"7256","Cootamundra Airport","","Australia","CMD","-34.62390137","148.0279999"
"9162","Eil Airport","Eyl","Somalia","HCM","8.104","49.82"
"7724","  Avu Avu","Avu Avu","Solomon Islands","AVU","-9.867","160.4"
"76","Stephenville Airport","Stephenville","Canada","YJT","48.5442009","-58.54999924"
"3670","Oceana Naval Air Station","Oceana","United States","NTU","36.820702","-76.033501"
"4978","Baotou Airport","Baotou","China","BAV","40.56000137","109.9970016"
"4687","Sorocaba Airport","Sorocaba","Brazil","SOD","-23.478001","-47.490002"
"2773","Yakutsk Airport","Yakutsk","Russia","YKS","62.09329987","129.7709961"
"6667","Saertu Airport","Daqing","China","DQA","46.74638889","125.1405556"
"10462","Cape Flattery Airport","Hope Vale","Australia","CQP","-14.970832","145.311667"
"6668","Zunyi Xinzhou Airport","Zunyi","China","ZYI","27.5895","107.0007"
"6557","Port Alsworth Airport","Port alsworth","United States","PTA","60.201681","-154.325863"
"8041","MILANO/BRESSO","","Italy","MIL","45.5406","9.2022"
"10086","Paratebueno Airport","","Colombia","EUO","4.383333","-73.2"
"4066","Ust-Ilimsk Airport","Ust Ilimsk","Russia","UIK","58.13610077","102.5650024"
"4565","Longana Airport","Longana","Vanuatu","LOD","-15.30669975","167.9669952"
"5433","Yakataga Airport","Yakataga","United States","CYT","60.080974","-142.494541"
"10124","Hato Corozal Airport","","","HTZ","6.15","-71.75"
"3748","Barysiai Airport","Barysiai","Lithuania","HLJ","56.0705986","23.55809975"
"1848","José Martí International Airport","Havana","Cuba","HAV","22.98920059","-82.40910339"
"10534","Injune Airport","Injune","Australia","INJ","-25.851","148.5497"
"5364","Orcas Island Airport","Eastsound","United States","ESD","48.70819855","-122.9100037"
"3778","Erbil International Airport","Erbil","Iraq","EBL","36.23759842","43.96319962"
"8680","Sila Airport","Sila Mission","Papua New Guinea","SIL","-9.073555556","148.38925"
"3140","Albury Airport","Albury","Australia","ABX","-36.06779861","146.9579926"
"84","Lloydminster Airport","Lloydminster","Canada","YLL","53.30920029","-110.072998"
"8068","XXX","Namuga","Solomon Islands","NAZ","-10.7833","162.3"
"10502","Eva Downs Airport","","","EVD","-18.00099945","134.8630066"
"2724","Tumeremo Airport","Tumeremo","Venezuela","TMO","7.24938","-61.52893"
"1916","Arutua Airport","Arutua","French Polynesia","AXR","-15.2482996","-146.6170044"
"2539","Seymour Airport","Galapagos","Ecuador","GPS","-0.453758001","-90.26589966"
"7899","JACKSONVILLE MUNI","Jacksonville","United States","IJX","39.7744","-90.2386"
"3711","Maumere(Wai Oti) Airport","Maumere","Indonesia","MOF","-8.640649796","122.2369995"
"5609","Qurghonteppa International Airport","Kurgan Tyube","Tajikistan","KQT","37.86640167","68.86470032"
"2565","Juan De Ayolas Airport","Ayolas","Paraguay","AYO","-27.370554","-56.854064"
"3413","Savannah Hilton Head International Airport","Savannah","United States","SAV","32.12760162","-81.20210266"
"2694","El Dorado Airport","El Dorado","Venezuela","EOR","6.733333111","-61.58333206"
"2865","Maharana Pratap Airport","Udaipur","India","UDR","24.61770058","73.89610291"
"6332","Cross City Airport","Cross City","United States","CTY","29.63549995","-83.10479736"
"3290","Tipton Airport","Fort Meade","United States","FME","39.08539963","-76.75939941"
"8905","Belmullet Aerodrome","","Ireland","BLY","54.22280121","-10.03079987"
"3204","Taiping Airport","Harbin","China","HRB","45.62340164","126.25"
"3960","Naxos Airport","Cyclades Islands","Greece","JNX","37.08110046","25.36809921"
"6263","Keokuk Municipal Airport","Keokuk","United States","EOK","40.4598999","-91.42849731"
"1886","Mayaguana Airport","Mayaguana","Bahamas","MYG","22.379499","-73.013494"
"7770","Crooked Creek","Crooked Creek","United States","CKD","61.8679","-158.1349"
"5466","Havre St Pierre Airport","Havre-Saint-Pierre","Canada","YGV","50.2818985","-63.6114006"
"8100","Ustupu Island","Mulatupo O Sasardi","Panama","OGM","8.945","-77.734"
"10399","Muhammad Taufiq Kiemas Airport","","Indonesia","TFY","-5.211562","103.936501"
"3900","Glacier Park International Airport","Kalispell","United States","FCA","48.3105011","-114.2559967"
"9496","Billy Mitchell Airport","Frisco","United States","HNC","35.23279953","-75.61779785"
"1449","Thessaloniki Macedonia International Airport","Thessaloniki","Greece","SKG","40.5196991","22.97089958"
"4250","Muskrat Dam Airport","Muskrat Dam","Canada","MSA","53.44139862","-91.76280212"
"9886","Nowata Airport","Boianai Mission","Papua New Guinea","NWT","-9.984166667","149.7291667"
"3358","Meadows Field","Bakersfield","United States","BFL","35.43360138","-119.0569992"
"10417","Glendale Fokker Field","Glen Dale","United States","GWV","39.94869995","-80.7594986"
"526","Aberdeen Dyce Airport","Aberdeen","United Kingdom","ABZ","57.20190048","-2.197779894"
"9388","Creston Municipal Airport","Creston","United States","CSQ","41.02140045","-94.36329651"
"9497","Hot Springs County Airport","Lucerne","United States","THP","43.713602","-108.389687"
"3667","John Wayne Airport-Orange County Airport","Santa Ana","United States","SNA","33.67570114","-117.8679962"
"10667","Wudinna Airport","Wudinna","Australia","WUD","-33.04330063","135.4470062"
"4848","Long Lellang Airport","Long Datih","Malaysia","LGL","3.421000004","115.1539993"
"2181","Narita International Airport","Tokyo","Japan","NRT","35.76470184","140.3860016"
"654","Sandefjord Airport, Torp","Sandefjord","Norway","TRF","59.18669891","10.25860024"
"9870","Niokolo-Koba Airport","","Senegal","NIK","13.052014","-12.727162"
"9574","Stroudsburg Pocono Airport","East Stroudsburg","United States","ESP","41.03580093","-75.16059875"
"230","Ghriss Airport","Ghriss","Algeria","MUW","35.20769882","0.147141993"
"9114","Voinjama Airport","","Liberia","VOI","8.327778","-9.768056"
"9239","Pakyong Airport","Pakyong","India","PYG","27.2313","88.587196"
"9234","Tiom Airport","","Indonesia","TMY","-3.9256","138.4555"
"9083","Kabalo Airport","Kabalo","Democratic Republic Of The Congo","KBO","-6.083000183","26.91699982"
"6161","General Villamil Airport","Isabela","Ecuador","IBB","-0.942628026","-90.95300293"
"10011","Puerto La Victoria Airport","Cerro Morado","Paraguay","PCJ","-22.295041","-57.866333"
"6600","Cowra Airport","Chatsworth","Australia","CWT","-33.84469986","148.6490021"
"4993","Yichang Sanxia Airport","Yichang","China","YIH","30.55655","111.479988"
"5004","Dalanzadgad Airport","Dalanzadgad","Mongolia","DLZ","43.59170151","104.4300003"
"6692","Muara Bungo Airport","Muara Bungo","Indonesia","BUU","-1.1278","102.135"
"5337","Manistee Co Blacker Airport","Manistee","United States","MBL","44.2723999","-86.24690247"
"1711","Coban Airport","Coban","Guatemala","CBV","15.46899986","-90.40670013"
"6897","Juína Airport","Juina","Brazil","JIA","-11.419444","-58.701668"
"4799","Penza Airport","Penza","Russia","PEZ","53.11059952","45.02109909"
"1478","Decimomannu Air Base","Decimomannu","Italy","DCI","39.354198","8.97248"
"6396","Turpan Jiaohe Airport","Turpan","China","TLQ","43.0308","89.0987"
"5546","Araguaína Airport","Araguaina","Brazil","AUX","-7.22787","-48.240501"
"7833","FORT SCOTT MUNI","Fort Scott","United States","FSK","37.7984","-94.7694"
"1797","General Leobardo C. Ruiz International Airport","Zacatecas","Mexico","ZCL","22.89710045","-102.6869965"
"4536","Malolo Lailai Island Airport","Malolo Lailai Island","Fiji","PTF","-17.7779007","177.1970062"
"6470","Dinwiddie County Airport","Petersburg","United States","PTB","37.18379974","-77.50740051"
"9758","Çıldır Airport","","Turkey","CII","37.81499863","27.89529991"
"9176","Tessenei Airport","Teseney","Eritrea","TES","15.104322","36.681711"
"8149","Qeqertaq","Qeqertaq","Greenland","PQT","70.0","-51.2831"
"9396","Converse County Airport","Douglas","United States","DGW","42.79719925","-105.3860016"
"10004","Pimaga Airport","Orokana","Papua New Guinea","PMP","-6.499166667","143.5102778"
"4323","Tambohorano Airport","Tambohorano","Madagascar","WTA","-17.47610092","43.97280121"
"10008","Puas Airport","Puas Mission","Papua New Guinea","PUA","-2.395","150.2361"
"7717","APUCARANA","","Brazil","APU","-23.6117","-51.3844"
"6985","Centralia / James T. Field Memorial Aerodrome","Centralia","Canada","YCE","43.285599","-81.508301"
"9210","Elelim Airport","","Indonesia","ELR","-3.7826","139.3861"
"249","Takoradi Airport","Takoradi","Ghana","TKD","4.89605999","-1.774760008"
"2836","Sardar Vallabhbhai Patel International Airport","Ahmedabad","India","AMD","23.07719994","72.63469696"
"9819","Mapua(Mabua) Airport","Mapua","Papua New Guinea","MPU","-2.811388889","151.9911111"
"1445","Skiros Airport","Skiros","Greece","SKU","38.96760178","24.48719978"
"2148","Rota International Airport","Rota","Northern Mariana Islands","ROP","14.17430019","145.2429962"
"3833","Manhattan Regional Airport","Manhattan","United States","MHK","39.14099884","-96.67079926"
"111","Red Deer Regional Airport","Red Deer Industrial","Canada","YQF","52.18220139","-113.8939972"
"19","Vestmannaeyjar Airport","Vestmannaeyjar","Iceland","VEY","63.42430115","-20.27890015"
"5297","Kissimmee Gateway Airport","Kissimmee","United States","ISM","28.28980064","-81.43710327"
"4467","Victoria Regional Airport","Victoria","United States","VCT","28.8526001","-96.91850281"
"9887","Mueo Airport","Népoui","New Caledonia","PDC","-21.31640053","164.9989929"
"9982","Anguganak Airport","Yemnu","Papua New Guinea","AKG","-3.560504","142.217307"
"3829","General Wayne A. Downing Peoria International Airport","Peoria","United States","PIA","40.66419983","-89.69329834"
"9624","Hale County Airport","Plainview","United States","PVW","34.16809845","-101.7170029"
"859","Kasane Airport","Kasane","Botswana","BBK","-17.83289909","25.16239929"
"8634","Habi Airport","Kugoyobi","Papua New Guinea","HBD","-6.32","142.4893"
"1441","Sparti Airport","Sparti","Greece","SPJ","36.97389984","22.52630043"
"1498","Treviso-Sant'Angelo Airport","Treviso","Italy","TSF","45.648399","12.1944"
"7777","CARANSEBES","Caransebeș","Romania","CRS","45.4203","22.2522"
"949","M'Vengue El Hadj Omar Bongo Ondimba International Airport","Franceville","Gabon","MVB","-1.656159997","13.43799973"
"7248","Alpha Airport","Alpha","Australia","ABH","-23.646099","146.584"
"274","Yola Airport","Yola","Nigeria","YOL","9.25755024","12.43039989"
"3297","Creech Air Force Base","Indian Springs","United States","INS","36.58720016","-115.6729965"
"7654","New Islamabad International Airport","Islamabad","Pakistan","ISB","33.560713","72.851613"
"4697","Obando Airport","Puerto Inírida","Colombia","PDA","3.85353","-67.9062"
"4702","Reyes Airport","Reyes","Bolivia","REY","-14.3044","-67.353401"
"3984","Centennial Airport","Denver","United States","APA","39.57009888","-104.848999"
"8690","Tarakbits Airport","Tarakbits","Papua New Guinea","TRJ","-5.614","141.0421"
"3727","Chiang Rai International Airport","Chiang Rai","Thailand","CEI","19.95229912","99.88289642"
"4322","Morafenobe Airport","Morafenobe","Madagascar","TVA","-17.850083","44.920467"
"6688","Betoambari Airport","Bau-Bau","Indonesia","BUW","-5.486879826","122.5690002"
"8914","Ranger Municipal Airport","Ranger","United States","RGR","32.45259857","-98.68280029"
"2711","General Bartolome Salom International Airport","Puerto Cabello","Venezuela","PBL","10.48050022","-68.07299805"
"952","Beira Airport","Beira","Mozambique","BEW","-19.79640007","34.9076004"
"951","São Tomé International Airport","Sao Tome","Sao Tome and Principe","TMS","0.37817499","6.712150097"
"2771","Aktobe Airport","Aktyubinsk","Kazakhstan","AKX","50.2458","57.206699"
"6671","Anshun Huangguoshu Airport","Anshun","China","AVA","26.26055556","105.8733333"
"8343","UDEN/VOLKEL","Volkel","Netherlands","UDE","51.6581","5.7092"
"4637","Hengchun Airport","Hengchun","Taiwan","HCN","22.04109955","120.7300034"
"4554","Maota Airport","Savaii Island","Samoa","MXS","-13.74230003","-172.2579956"
"3086","Sultan Syarif Kasim Ii (Simpang Tiga) Airport","Pekanbaru","Indonesia","PKU","0.460786015","101.4449997"
"3080","Sibu Airport","Sibu","Malaysia","SBW","2.261600018","111.9850006"
"3330","Gray Army Air Field","Fort Lewis","United States","GRF","47.07920074","-122.5810013"
"1428","Leros Airport","Leros","Greece","LRS","37.184898","26.800301"
"10220","Zaraza Airport","Montero","Venezuela","ZRZ","9.350306","-65.280655"
"9986","Hayfields Airport","Hayfield","Papua New Guinea","HYF","-3.69838","143.057902"
"2212","Kitakyūshū Airport","Kitakyushu","Japan","KKJ","33.84590149","131.0350037"
"3682","Ladd AAF Airfield","Fort Wainwright","United States","FBK","64.83750153","-147.6139984"
"9928","Bahawalnagar Airport","Bahāwalnagar","Pakistan","WGB","29.94630051","73.24909973"
"1052","Ouarzazate Airport","Ouarzazate","Morocco","OZZ","30.93910027","-6.909430027"
"4067","Key Field","Meridian","United States","MEI","32.33259964","-88.75189972"
"5055","Worcester Regional Airport","Worcester","United States","ORH","42.26729965","-71.8757019"
"5072","Gustaf III Airport","Gustavia","France","SBH","17.90439987","-62.84360123"
"4318","Antsalova Airport","Antsalova","Madagascar","WAQ","-18.701273","44.614921"
"7791","  Chisana","Chisana","United States","CZN","62.0712","-142.0484"
"1336","Abbeville","Abbeville","France","XAB","50.143501","1.831891"
"222","Bou Chekif Airport","Tiaret","Algeria","TID","35.34109879","1.463150024"
"9151","Beles Airport","Pawe Special Woreda","Ethiopia","PWI","11.3126","36.4164"
"17","Reykjavik Airport","Reykjavik","Iceland","RKV","64.12999725","-21.94059944"
"1373","Lorient South Brittany (Bretagne Sud) Airport","Lorient","France","LRT","47.76060104","-3.440000057"
"4724","Kokshetau Airport","Kokshetau","Kazakhstan","KOV","53.329102","69.594597"
"4513","Aerotortuguero Airport","Roxana","Costa Rica","TTQ","10.42","-83.6095"
"976","N'Djamena International Airport","N'djamena","Chad","NDJ","12.1337","15.034"
"7101","Winnemucca Municipal Airport","Winnemucca","United States","WMC","40.89659882","-117.8059998"
"8999","Ampanihy Airport","Ampanihy","Madagascar","AMP","-24.6996994","44.73419952"
"5032","Mianyang Airport","Mianyang","China","MIG","31.42810059","104.7409973"
"8247","Roti","","Indonesia","RTI","-10.4842","123.37"
"9866","Wakaya Island Airport","","","KAY","-17.61700058","179.0169983"
"7676","Bezmer Air Base","Yambol","Bulgaria","JAM","42.45489883","26.35219955"
"1432","Mikonos Airport","Mykonos","Greece","JMK","37.43510056","25.34810066"
"630","Geilo Airport Dagali","Geilo","Norway","DLD","60.41730118","8.518349648"
"9041","Lebakeng Airport","Tsoelike","Lesotho","LEF","-29.89080048","28.65559959"
"5445","Kongiganak Airport","Kongiganak","United States","KKH","59.96080017","-162.8809967"
"10003","Phanom Sarakham Airport","Ko Khanun","Thailand","PMM","13.7553","101.395"
"2493","Tarauacá Airport","Tarauaca","Brazil","TRQ","-8.155260086","-70.78330231"
"8801","Tisdale Airport","Tisdale","Canada","YTT","52.83670044","-104.0670013"
"14","Ísafjörður Airport","Isafjordur","Iceland","IFJ","66.05809784","-23.13529968"
"7003","St Thomas Municipal Airport","St Thomas","Canada","YQS","42.77000046","-81.1108017"
"10620","Dean River Airport","","Canada","YRD","52.82371","-126.964957"
"3216","Hilo International Airport","Hilo","United States","ITO","19.72139931","-155.0480042"
"8842","Dathina Airport","Al Qaws","Yemen","DAH","13.866884","46.133473"
"600","Billund Airport","Billund","Denmark","BLL","55.74029922","9.151780128"
"7067","Deming Municipal Airport","Deming","United States","DMN","32.26229858","-107.7210007"
"6341","Sidney Municipal-Lloyd W Carr Field","Sidney","United States","SNY","41.10129929","-102.9850006"
"6905","Bumbar Airport","Bumba","Congo (Kinshasa)","BMB","2.18278","22.481701"
"6030","Ourilândia do Norte Airport","Ourilandia do Norte","Brazil","OIA","-6.763100147","-51.04990005"
"4107","Longjia Airport","Changchun","China","CGQ","43.99620056","125.6849976"
"6340","Duxford Aerodrome","Duxford","United Kingdom","QFO","52.090801","0.131944"
"3606","Charleston Air Force Base-International Airport","Charleston","United States","CHS","32.89860153","-80.04049683"
"1712","La Aurora Airport","Guatemala City","Guatemala","GUA","14.5833","-90.527496"
"10591","Mullewa Airport","Mullewa","Australia","MXU","-28.47500038","115.5169983"
"9425","Phifer Airfield","Wheatland","United States","EAN","42.0555","-104.929001"
"184","Swift Current Airport","Swift Current","Canada","YYN","50.29190063","-107.6910019"
"3468","Roscommon County - Blodgett Memorial Airport","Houghton Lake","United States","HTL","44.359798","-84.671095"
"7009","Vernon Airport","Vernon","Canada","YVE","50.24810028","-119.3310013"
"4324","Tsiroanomandidy Airport","Tsiroanomandidy","Madagascar","WTS","-18.759677","46.054065"
"7254","Corowa Airport","","Australia","CWW","-35.99470139","146.3569946"
"343","Nuremberg Airport","Nuernberg","Germany","NUE","49.498699","11.078056"
"6317","Gabala International Airport","Qabala","Azerbaijan","GBB","40.826667","47.7125"
"6024","Kanas Airport","Burqin","China","KJI","48.2223","86.9959"
"1529","Portoroz Airport","Portoroz","Slovenia","POW","45.47340012","13.61499977"
"9694","Nephi Municipal Airport","Nephi","United States","NPH","39.73880005","-111.8720016"
"8025","Losuia                                  ","Losuia","Papua New Guinea","LSA","-8.5","151.067"
"7260","Echuca Airport","","Australia","ECH","-36.15719986","144.7619934"
"2425","Jacareacanga Airport","Jacare-acanga","Brazil","JCR","-6.233160019","-57.77690125"
"8782","Fort McMurray / Mildred Lake Airport","Mildred Lake","Canada","NML","57.05559921","-111.5739975"
"3714","El Tari Airport","Kupang","Indonesia","KOE","-10.17160034","123.6709976"
"2027","Aghajari Airport","Aghajari","Iran","AKW","30.7444","49.6772"
"5727","Garfield County Regional Airport","Rifle","United States","RIL","39.526299","-107.726997"
"2787","Boryspil International Airport","Kiev","Ukraine","KBP","50.34500122","30.8946991"
"8578","Charata Airport","","Argentina","CNT","-27.2164","-61.2103"
"7173","Victoria Airport","Victoria","Chile","ZIC","-38.24560165","-72.34860229"
"2389","Villa Gesell Airport","Villa Gesell","Argentina","VLG","-37.2354","-57.0292"
"8113","NORTH KINGSTON/QUONSET STATE","North Kingstown","United States","OQU","41.5971","-71.4121"
"2640","Alferez FAP Alfredo Vladimir Sara Bauer Airport","Andoas","Peru","AOP","-2.796129942","-76.46659851"
"4900","Geraldton Airport","Geraldton","Australia","GET","-28.796101","114.707001"
"5182","Delta County Airport","Escanaba","United States","ESC","45.72269821","-87.09369659"
"1328","Mende-Brenoux Airfield","Mende","France","MEN","44.502102","3.53282"
"1508","Padova Airport","Padova","Italy","QPA","45.395802","11.8479"
"2523","Carriel Sur Airport","Concepcion","Chile","CCP","-36.772701","-73.063103"
"4427","Chippewa Valley Regional Airport","Eau Claire","United States","EAU","44.86579895","-91.48429871"
"5107","Ruby Airport","Ruby","United States","RBY","64.72720337","-155.4700012"
"4363","Smara Airport","Smara","Western Sahara","SMW","26.7318","-11.6847"
"4225","Oxford House Airport","Oxford House","Canada","YOH","54.93330002","-95.27890015"
"1631","Bern Belp Airport","Bern","Switzerland","BRN","46.91410065","7.497149944"
"6053","Shank Air Base","Shank","Afghanistan","OAA","33.9225","69.07722222"
"3146","Melbourne International Airport","Melbourne","Australia","MEL","-37.673302","144.843002"
"5423","Golovin Airport","Golovin","United States","GLV","64.55049896","-163.0070038"
"4743","Kryvyi Rih International Airport","Krivoy Rog","Ukraine","KWG","48.04330063","33.20999908"
"2667","Coronel FAP Carlos Ciriani Santa Rosa International Airport","Tacna","Peru","TCQ","-18.05330086","-70.27580261"
"10629","Singleton Airport","Whittingham","Australia","SIX","-32.600832","151.193056"
"8944","Ewo Airport","Ewo","Republic Of The Congo","EWO","-0.883000016","14.80000019"
"8636","Honinabi Airport","","","HNN","-16.2457","142.1771"
"3197","Chongqing Jiangbei International Airport","Chongqing","China","CKG","29.71920013","106.6419983"
"4498","La Isabela International Airport","La Isabela","Dominican Republic","JBQ","18.57250023","-69.98560333"
"4824","Can Tho International Airport","Can Tho","Vietnam","VCA","10.08510017","105.711998"
"8619","Doini Airport","Sideia I","Papua New Guinea","DOI","-10.7009","150.7218"
"10085","Monterrey Airport","","Colombia","MOY","4.906926","-72.894809"
"8795","Circle Hot Springs Airport","Central","United States","CHP","65.48549652","-144.6109924"
"4942","Newman Airport","Newman","Australia","ZNE","-23.4178009","119.8030014"
"1864","Owen Roberts International Airport","Georgetown","Cayman Islands","GCM","19.2928009","-81.35769653"
"2361","Reconquista Airport","Reconquista","Argentina","RCQ","-29.2103","-59.68"
"2380","General Pico Airport","General Pico","Argentina","GPO","-35.69620132","-63.75830078"
"3472","McChord Air Force Base","Tacoma","United States","TCM","47.13769913","-122.4759979"
"6427","Hayward Executive Airport","Hayward","United States","HWD","37.65919876","-122.1220016"
"6358","Villa Airport","Maamigili","Maldives","VAM","3.470555556","72.83583333"
"4583","Dillon's Bay Airport","Dillon's Bay","Vanuatu","DLY","-18.76939964","169.0010071"
"10076","Arboletes Airport","Arboletes","Colombia","ARO","8.85705","-76.4244"
"8708","Sim Airport","Kasangari Number 2","Papua New Guinea","SMJ","-7.75","146.9273"
"3631","Boca Raton Airport","Boca Raton","United States","BCT","26.37849998","-80.10769653"
"5310","Prince Rupert/Seal Cove Seaplane Base","Prince Rupert","Canada","ZSW","54.33330154","-130.2830048"
"5598","Foshan Shadi Airport","Foshan","China","FUO","23.08329964","113.0699997"
"3509","Calexico International Airport","Calexico","United States","CXL","32.66949844","-115.5130005"
"1100","Cairo International Airport","Cairo","Egypt","CAI","30.12190056","31.40559959"
"3756","Zvartnots International Airport","Yerevan","Armenia","EVN","40.14730072","44.39590073"
"4260","Bordj Badji Mokhtar Airport","Bordj Badji Mokhtar","Algeria","BMW","21.375","0.923888981"
"3408","Richmond International Airport","Richmond","United States","RIC","37.50519943","-77.31970215"
"7611","Tanah Merah Airport","Boven Digoel","Indonesia","TMH","-6.099219799","140.2980042"
"3017","Surin Airport","Surin","Thailand","PXR","14.86830044","103.4980011"
"10467","Cordillo Downs Airport","","","ODL","-26.74530029","140.6380005"
"4872","Birdsville Airport","Birdsville","Australia","BVI","-25.89749908","139.3480072"
"6134","Lombok International Airport","Praya","Indonesia","LOP","-8.757322","116.276675"
"1293","Chambéry-Savoie Airport","Chambery","France","CMF","45.63809967","5.88022995"
"6807","Talladega Municipal Airport","Talladega","United States","ASN","33.56990051","-86.05090332"
"4624","Holy Cross Airport","Holy Cross","United States","HCR","62.18830109","-159.7749939"
"4425","Dodge City Regional Airport","Dodge City","United States","DDC","37.76340103","-99.96559906"
"2271","Gimpo International Airport","Seoul","South Korea","GMP","37.5583","126.791"
"82","Chapleau Airport","Chapleau","Canada","YLD","47.81999969","-83.34670258"
"3832","University of Illinois Willard Airport","Champaign","United States","CMI","40.03919983","-88.27809906"
"8147","Port Protection","Point Baker","United States","PPV","56.3288","-133.6101"
"6208","South Jersey Regional Airport","Mount Holly","United States","LLY","39.94290161","-74.84570313"
"3948","Taplejung Airport","Taplejung","Nepal","TPJ","27.3509","87.69525"
"5649","Lintsang Airfield","Lincang","China","LNJ","23.73810005","100.0250015"
"1549","Beersheba (Teyman) Airport","Beer-sheba","Israel","BEV","31.28700066","34.72299957"
"3912","Diosdado Macapagal International Airport","Angeles City","Philippines","CRK","15.186","120.559998"
"10644","Tangalooma Airport","Moreton Island","Australia","TAN","-27.12999916","153.3630066"
"10304","Neftekamsk Airport","Neftekamsk","Russia","NEF","56.10689926","54.34719849"
"10213","Santa Vitória do Palmar Airport","","Brazil","CTQ","-33.50222397","-53.3441658"
"8492","Hanover Rail","Hannover","Germany","ZVR","52.376","9.741"
"3174","Guangzhou Baiyun International Airport","Guangzhou","China","CAN","23.39240074","113.2990036"
"383","Burg Feuerstein Airport","Burg Feuerstein","Germany","URD","49.79416656","11.13361073"
"4720","Vance W. Amory International Airport","Charlestown","Saint Kitts and Nevis","NEV","17.20569992","-62.58990097"
"3518","Abilene Regional Airport","Abilene","United States","ABI","32.41130066","-99.68190002"
"3655","Tulsa International Airport","Tulsa","United States","TUL","36.19839859","-95.88809967"
"6390","Rochester Airport","Rochester","United Kingdom","RCS","51.35189819","0.503332973"
"9812","Punta Colorada Airport","Punta Colorada","Mexico","PCO","23.575011","-109.535826"
"7536","Alxa Right Banner Badanjilin Airport","Alxa Right Banner","China","RHT","39.225","101.546"
"9331","Virgil I Grissom Municipal Airport","Bedford","United States","BFR","38.84000015","-86.44539642"
"9608","Park Falls Municipal Airport","Park Falls","United States","PKF","45.95500183","-90.42440033"
"2630","Juana Azurduy De Padilla Airport","Sucre","Bolivia","SRE","-19.00709915","-65.28869629"
"4013","Martha's Vineyard Airport","Vineyard Haven MA","United States","MVY","41.39310074","-70.61430359"
"9579","Nervino Airport","Beckwourth","United States","NVN","39.81850052","-120.3529968"
"10019","Taean Airport","Taean-Gun","South Korea","QDY","36.59453","126.295803"
"79","Schefferville Airport","Schefferville","Canada","YKL","54.80530167","-66.80529785"
"3654","Cold Bay Airport","Cold Bay","United States","CDB","55.20610046","-162.7250061"
"44","Deer Lake Airport","Deer Lake","Canada","YDF","49.21080017","-57.39139938"
"136","Summerside Airport","Summerside","Canada","YSU","46.44060135","-63.83359909"
"2060","Kerman Airport","Kerman","Iran","KER","30.27440071","56.9510994"
"3169","Wagga Wagga City Airport","Wagga Wagga","Australia","WGA","-35.16529846","147.4660034"
"10451","Bulimba Airport","","","BIP","-16.88080025","143.4790039"
"7165","Mati National Airport","","Philippines","MXI","6.949091","126.27368"
"5706","Takaka Airport","Takaka","New Zealand","KTF","-40.81330109","172.7749939"
"9536","Lyons-Rice County Municipal Airport","Lyons","United States","LYO","38.34280014","-98.22689819"
"8421","TIKRIT/AL SAHRA AAF","Tikrit","Iraq","XTV","34.6732","43.543"
"10165","Currais Novos Airport","","Brazil","QCP","-6.280832767","-36.54027939"
"4333","Catumbela Airport","Catumbela","Angola","CBT","-12.4792","13.4869"
"2808","Stavropol Shpakovskoye Airport","Stavropol","Russia","STW","45.10919952","42.1128006"
"10191","Cayana Airstrip","Cajana","Suriname","AAJ","3.898681","-55.577907"
"8417","  Qualicum Beach","Qualicum Beach","Canada","XQU","49.3372","-124.3939"
"2607","El Embrujo Airport","Providencia","Colombia","PVA","13.3569","-81.3583"
"3382","Long Beach /Daugherty Field/ Airport","Long Beach","United States","LGB","33.81769943","-118.1520004"
"6524","Niagara District Airport","Saint Catherines","Canada","YCM","43.19169998","-79.17169952"
"290","Djerba Zarzis International Airport","Djerba","Tunisia","DJE","33.875","10.7755003"
"5341","La Macaza / Mont-Tremblant International Inc Airport","Mont-Tremblant","Canada","YTM","46.40940094","-74.77999878"
"10603","Nullabor Motel Airport","Nullarbor","Australia","NUR","-31.44169998","130.9019928"
"1958","Palmerston North Airport","Palmerston North","New Zealand","PMR","-40.3205986","175.6170044"
"3454","Ardmore Municipal Airport","Ardmore","United States","ADM","34.30301","-97.0196342"
"9605","Yapsiei Airport","Yapsiei","Papua New Guinea","KPE","-4.628055556","141.0941667"
"1544","Přerov Air Base","Prerov","Czech Republic","PRV","49.42580032","17.40469933"
"1676","Batman Airport","Batman","Turkey","BAL","37.92900085","41.11660004"
"3660","Unalaska Airport","Unalaska","United States","DUT","53.90010071","-166.5440063"
"2870","Ampara Airport","Galoya","Sri Lanka","ADP","7.33776","81.62594"
"586","Soesterberg Air Base","Soesterberg","Netherlands","UTC","52.12730026","5.276189804"
"10152","Santa Rosa De Yacuma Airport","Santa Rosa De Yacuma","Bolivia","SRB","-14.06620026","-66.78679657"
"2839","Chhatrapati Shivaji International Airport","Mumbai","India","BOM","19.08869934","72.86789703"
"61","La Grande Rivière Airport","La Grande Riviere","Canada","YGL","53.62530136","-77.70420074"
"5680","Fitzroy Crossing Airport","Fitzroy Crossing","Australia","FIZ","-18.18190002","125.5589981"
"8200","SAO BORJA","Santo Tomé","Argentina","QOJ","-28.5025","-56.0322"
"546","Exeter International Airport","Exeter","United Kingdom","EXT","50.7344017","-3.413889885"
"3980","Bundaberg Airport","Bundaberg","Australia","BDB","-24.90390015","152.3190002"
"4098","Pechora Airport","Pechora","Russia","PEX","65.12110138","57.13079834"
"3700","Pondok Cabe Air Base","Jakarta","Indonesia","PCB","-6.336959839","106.7649994"
"3125","Brisbane Archerfield Airport","Brisbane","Australia","ACF","-27.57029915","153.0079956"
"735","Spangdahlem Air Base","Spangdahlem","Germany","SPM","49.97269821","6.692500114"
"2763","Astana International Airport","Tselinograd","Kazakhstan","TSE","51.02220154","71.46690369"
"1719","Tela Airport","Tela","Honduras","TEA","15.7759","-87.4758"
"8418","XXX","Marseilles-Lès-Aubigny","France","XRF","47.0667","3.0"
"4576","Tongoa Airport","Tongoa Island","Vanuatu","TGH","-16.89109993","168.5509949"
"2201","Okushiri Airport","Okushiri","Japan","OIR","42.07170105","139.4329987"
"5194","Williamson County Regional Airport","Marion","United States","MWA","37.75500107","-89.01110077"
"3111","Senai International Airport","Johor Bahru","Malaysia","JHB","1.64131","103.669998"
"4659","Sanga Sanga Airport","Sanga Sanga","Philippines","TWT","5.046991","119.742996"
"3037","Lashio Airport","Lashio","Burma","LSH","22.97789955","97.75219727"
"9205","Anggi Airport","","Indonesia","AGD","-1.3858","133.8737"
"4676","Santa Teresita Airport","Santa Teresita","Argentina","SST","-36.5423","-56.7218"
"2747","George F. L. Charles Airport","Castries","Saint Lucia","SLU","14.0202","-60.992901"
"6581","Dare County Regional Airport","Manteo","United States","MEO","35.91899872","-75.69550323"
"8501","LBJ Ranch Airport","Stonewall","United States","JCY","30.25180054","-98.62249756"
"4385","Assiut International Airport","Asyut","Egypt","ATZ","27.04649925","31.01199913"
"4485","Kars Airport","Kars","Turkey","KSY","40.56219864","43.11500168"
"4477","Pécs-Pogány Airport","Pécs-Pogány","Hungary","PEV","45.990898","18.240996"
"2563","Teniente Coronel Luis a Mantilla Airport","Tulcan","Ecuador","TUA","0.809505999","-77.70809937"
"3556","Palmdale Regional/USAF Plant 42 Airport","Palmdale","United States","PMD","34.62939835","-118.0849991"
"8779","Tumbler Ridge Airport","","","TUX","55.02500153","-120.9349976"
"8471","Basel/Mulhouse Rail (CH)","Saint-Louis","France","ZDH","47.6","7.52"
"9228","Banaina Airport","","Indonesia","NAF","2.723050117","117.1259995"
"32","Nanaimo Airport","Nanaimo","Canada","YCD","49.05497022","-123.8698626"
"176","Calgary International Airport","Calgary","Canada","YYC","51.11389923","-114.0199966"
"8414","Doha Free Zone","الدوحة","Qatar","XOZ","25.25","51.5"
"3040","Myeik Airport","Myeik","Burma","MGZ","12.43980026","98.62149811"
"3248","Trenton Mercer Airport","Trenton","United States","TTN","40.27669907","-74.81349945"
"1998","Gurayat Domestic Airport","Guriat","Saudi Arabia","URY","31.412413","37.278898"
"2761","Almaty Airport","Alma-ata","Kazakhstan","ALA","43.35210037","77.04049683"
"9554","Shafter Airport - Minter Field","Shafter","United States","MIT","35.507401","-119.192002"
"1591","Pico Airport","Pico","Portugal","PIX","38.554298","-28.441299"
"8452","Mansons Landing","","","YMU","50.666","-124.983"
"10679","Inyati Airport","Dumphries","South Africa","INY","-24.77770042","31.38549995"
"3777","Ministro Pistarini International Airport","Buenos Aires","Argentina","EZE","-34.8222","-58.5358"
"6804","Wonsan Kalma International Airport","Wonsan","North Korea","WOS","39.166801","127.486"
"6896","Juruena Airport","Juruena","Brazil","JRN","-10.30583286","-58.48944473"
"5641","Destin Executive Airport","Destin","United States","DSI","30.40010071","-86.47149658"
"2477","Ponta Porã Airport","Ponta Pora","Brazil","PMG","-22.5496006","-55.70259857"
"4078","Springfield Branson National Airport","Springfield","United States","SGF","37.24570084","-93.38860321"
"8337","Tumxuk Tangwangcheng","","","TWC","39.525","78.5942"
"4143","Moro Airport","Moro","Papua New Guinea","MXH","-6.363329887","143.2380066"
"200","Sept-Îles Airport","Sept-iles","Canada","YZV","50.22330093","-66.26560211"
"10136","Gonzalo Mejía Airport","","Colombia","TRB","8.07453","-76.7415"
"1926","Raiatea Airport","Raiatea Island","French Polynesia","RFP","-16.7229","-151.466003"
"7273","Smithton Airport","","Australia","SIO","-40.83499908","145.0839996"
"4605","Bahawalpur Airport","Bahawalpur","Pakistan","BHV","29.34810066","71.71800232"
"1344","Paris-Le Bourget Airport","Paris","France","LBG","48.9693985","2.441390038"
"2195","Wakkanai Airport","Wakkanai","Japan","WKJ","45.40420151","141.8009949"
"5698","Beru Airport","Beru Island","Kiribati","BEZ","-1.354719996","176.0070038"
"4389","Nanyuki Airport","Nanyuki","Kenya","NYK","-0.062398899","37.041008"
"10033","Caviahue Airport","","Argentina","CVH","-37.851398","-71.009201"
"1990","Al Ahsa Airport","Al-ahsa","Saudi Arabia","HOF","25.2852993","49.48519897"
"8136","PHILIP","Philip","United States","PHP","44.0486","-101.5991"
"9311","Wharton Regional Airport","Wharton","United States","WHT","29.254299","-96.154404"
"10294","Mukhaizna Airport","","","UKH","19.38638889","56.40138889"
"4997","Qingyang Airport","Qingyang","China","IQN","35.799702","107.602997"
"10291","Preobrazheniye Airport","Preobrazheniye","Russia","RZH","42.921698","133.904438"
"6562","Santa Cruz del Quiche Airport","Santa Cruz des Quiche","Guatemala","AQB","15.01220036","-91.15059662"
"9515","Schoolcraft County Airport","Manistique","United States","ISQ","45.97460175","-86.17179871"
"1641","İncirlik Air Base","Adana","Turkey","UAB","37.0021019","35.42589951"
"96","Old Crow Airport","Old Crow","Canada","YOC","67.57060242","-139.8390045"
"4414","Bradford Regional Airport","Bradford","United States","BFD","41.80310059","-78.64009857"
"6691","Sanggata/Sangkimah Airport","Sanggata","Indonesia","SGQ","0.3847","117.543"
"4887","Cloncurry Airport","Cloncurry","Australia","CNJ","-20.66860008","140.5039978"
"9825","Mojica Airport","","Costa Rica","CSC","10.4307003","-85.17459869"
"950","Principe Airport","Principe","Sao Tome and Principe","PCP","1.662940025","7.411739826"
"8768","Mary River Aerodrome","Mary River","Canada","YMV","71.32416667","-79.35694444"
"10647","Tobermorey Airport","","","TYP","-22.25580025","137.9530029"
"8858","Dori Airport","Dori","Burkina Faso","DOR","14.03299999","-0.033"
"6515","Johnson County Executive Airport","Olathe","United States","OJC","38.84759903","-94.73760223"
"9590","Kakoro(Koroko) Airstrip","Kakoro","Papua New Guinea","KOR","-7.834666667","146.5335"
"7138","King Khaled Air Base","","Saudi Arabia","KMX","18.29730034","42.80350113"
"2188","Tokachi-Obihiro Airport","Obihiro","Japan","OBO","42.73329926","143.2169952"
"4473","Île d'Yeu Airport","Île d'Yeu","France","IDY","46.71860123","-2.391109943"
"6575","Evanston-Uinta County Airport-Burns Field","Evanston","United States","EVW","41.27479935","-111.0350037"
"8720","Bongo Airport","Bongo","Gabon","BGP","-2.1713","10.2088"
"4299","Hagfors Airport","Hagfors","Sweden","HFS","60.02009964","13.57890034"
"6789","Jumandy Airport","Tena","Ecuador","TNW","-1.059722","-77.583333"
"4528","Nassau Paradise Island Airport","Nassau","Bahamas","PID","25.08300018","-77.30000305"
"1927","Bauerfield International Airport","Port-vila","Vanuatu","VLI","-17.69930077","168.3200073"
"8091","Nunapitchuk","Nunapitchuk","United States","NUP","60.9058","-162.4391"
"3837","Mulu Airport","Mulu","Malaysia","MZV","4.04832983","114.8050003"
"5489","Siuna","Siuna","Nicaragua","SIU","13.72722244","-84.77777863"
"3073","Rendani Airport","Manokwari","Indonesia","MKW","-0.891833007","134.048996"
"6284","Butler Co Regional Airport - Hogan Field","Hamilton","United States","HAO","39.36380005","-84.52200317"
"9334","Allen C Perkinson Blackstone Army Air Field","Blackstone","United States","BKT","37.07419968","-77.95749664"
"8759","Boundary Airport","","","BYA","64.07830048","-141.1130066"
"3069","Pattimura Airport, Ambon","Ambon","Indonesia","AMQ","-3.710259914","128.0890045"
"360","Lübeck Blankensee Airport","Luebeck","Germany","LBC","53.80540085","10.71920013"
"4092","Saratov Central Airport","Saratov","Russia","RTW","51.56499863","46.04669952"
"5016","Huangyan Luqiao Airport","Huangyan","China","HYN","28.56220055","121.4290009"
"9441","Eastland Municipal Airport","Eastland","United States","ETN","32.41350174","-98.80979919"
"1317","Marseille Provence Airport","Marseille","France","MRS","43.43927192","5.221424103"
"1632","Grenchen Airport","Grenchen","Switzerland","ZHI","47.181599","7.41719"
"806","Ladysmith Airport","Ladysmith","South Africa","LAY","-28.58169937","29.74970055"
"8637","Haivaro Airport","Haivaro","Papua New Guinea","HIT","-6.9406","143.059"
"1905","Anaa Airport","Anaa","French Polynesia","AAA","-17.3526001","-145.5099945"
"3672","Casper-Natrona County International Airport","Casper","United States","CPR","42.908001","-106.463997"
"8729","Fáskrúðsfjörður Airport","Fáskrúðsfjörður","Iceland","FAS","64.931456","-14.047957"
"9073","Lusanga Airport","Yumbu-Yumbu","Democratic Republic Of The Congo","LUS","-4.800000191","18.71699905"
"8732","Holt Airport","Holt","Iceland","FLI","66.01418043","-23.4416914"
"6294","Kericho Airport","Kericho","Kenya","KEY","-0.3899","35.242093"
"7903","IMPERIAL MUNI","Imperial","United States","IML","40.5105","-101.6201"
"1806","Puerto Cabezas Airport","Puerto Cabezas","Nicaragua","PUZ","14.0472002","-83.38670349"
"1731","General Mariano Matamoros Airport","Cuernavaca","Mexico","CVJ","18.83480072","-99.26129913"
"8317","Takume","","","TJN","-15.857","-142.267"
"1902","Pago Pago International Airport","Pago Pago","American Samoa","PPG","-14.33100033","-170.7100067"
"6408","Pecos Municipal Airport","Pecos","United States","PEQ","31.38240051","-103.5110016"
"943","Lambarene Airport","Lambarene","Gabon","LBQ","-0.704388976","10.24569988"
"8770","Chilko Lake (Tsylos Park Lodge) Airport","","","CJH","51.625797","-124.144478"
"8566","Dirico Airport","Dirico","Angola","DRC","-17.98192406","20.76806068"
"2123","Shaheed Benazirabad Airport","Nawabshah","Pakistan","WNS","26.2194","68.390099"
"7409","Ulanqab Jining Airport","Wulanchabu","China","UCB","41.129722","113.108056"
"888","Mfuwe Airport","Mfuwe","Zambia","MFU","-13.25889969","31.93659973"
"3918","John A. Osborne Airport","Geralds","Montserrat","MNI","16.79140091","-62.19329834"
"4874","Hamilton Island Airport","Hamilton Island","Australia","HTI","-20.35810089","148.9519959"
"1992","Bisha Airport","Bisha","Saudi Arabia","BHH","19.9843998","42.6208992"
"8505","Dunsmuir Muni-Mott Airport","Mount Shasta","United States","MHS","41.263199","-122.272003"
"6492","Sikeston Memorial Municipal Airport","Sikeston","United States","SIK","36.89889908","-89.5617981"
"3059","Sentani International Airport","Jayapura","Indonesia","DJJ","-2.576950073","140.5160065"
"7169","Barriles Airport","Tocopilla","Chile","TOQ","-22.14109993","-70.06289673"
"9094","Kenieba Airport","Kéniéba","Mali","KNZ","12.83300018","-11.25"
"5152","Geneina Airport","Geneina","Sudan","EGN","13.48169994","22.46719933"
"10069","Safia Airport","Safia","Papua New Guinea","SFU","-9.593055556","148.6361111"
"6393","Kangding Airport","Kangding","China","KGT","30.1575","101.734722"
"10405","Taiping (Tekah) Airport","Taiping","Malaysia","TPG","4.866432","100.715381"
"5031","Luzhou Airport","Luzhou","China","LZO","28.85219955","105.3929977"
"10339","Maafaru International Airport","Maafaru","Maldives","NMF","5.818394","73.469181"
"5557","Maués Airport","Maues","Brazil","MBZ","-3.37217","-57.7248"
"10228","Dianópolis Airport","","Brazil","DNO","-11.59539986","-46.84669876"
"3707","Syamsudin Noor Airport","Banjarmasin","Indonesia","BDJ","-3.442359924","114.7630005"
"6870","Banning Municipal Airport","Banning","United States","BNG","33.92309952","-116.8509979"
"3224","Tatalina LRRS Airport","Tatalina","United States","TLJ","62.89440155","-155.977005"
"4408","Athens Ben Epps Airport","Athens","United States","AHN","33.94860077","-83.32630157"
"5357","Vernal Regional Airport","Vernal","United States","VEL","40.4408989","-109.5100021"
"924","Mbanza Congo Airport","M'banza-congo","Angola","SSY","-6.269899845","14.24699974"
"3096","Supadio Airport","Pontianak","Indonesia","PNK","-0.150711","109.4039993"
"6407","Mattala Rajapaksa International Airport","Mattala","Sri Lanka","HRI","6.284467","81.124128"
"2328","Chos Malal Airport","Chosmadal","Argentina","HOS","-37.44469833","-70.22250366"
"4930","Mildura Airport","Mildura","Australia","MQL","-34.22919846","142.0859985"
"5432","Nikolski Air Station","Nikolski","United States","IKO","52.9416008","-168.848999"
"3433","Newport News Williamsburg International Airport","Newport News","United States","PHF","37.13190079","-76.49299622"
"4609","Dera Ismael Khan Airport","Dera Ismael Khan","Pakistan","DSK","31.90940094","70.89659882"
"8382","PUERTO AYSEN/CABO1 JUAN ROMAN","Puerto Aysén","Chile","WPA","-45.4","-72.6667"
"881","Garoua International Airport","Garoua","Cameroon","GOU","9.335889816","13.37010002"
"8125","PARNAIBA/PREF DR JOAO S. FILHO","","Brazil","PBB","-2.8939","-41.7325"
"9086","Luiza Airport","Luiza","Democratic Republic Of The Congo","LZA","-7.183000088","22.39999962"
"3071","Kaimana Airport","Kaimana","Indonesia","KNG","-3.644520044","133.6959991"
"889","Mongu Airport","Mongu","Zambia","MNR","-15.25450039","23.16230011"
"7769","COMITAN","","Mexico","CJT","16.1767","-92.0506"
"2125","Panjgur Airport","Panjgur","Pakistan","PJG","26.9545002","64.13249969"
"1162","Plovdiv International Airport","Plovdiv","Bulgaria","PDV","42.067799","24.8508"
"2546","Jose Maria Velasco Ibarra Airport","Macara","Ecuador","MRR","-4.378230095","-79.94100189"
"6207","Chautauqua County-Dunkirk Airport","Dunkirk","United States","DKK","42.49330139","-79.27200317"
"7987","Port Bailey","Kodiak","United States","KPY","57.9301","-153.0406"
"2228","Okayama Airport","Okayama","Japan","OKJ","34.75690079","133.8549957"
"9098","Yélimané Airport","Yelimane","Mali","EYL","15.13300037","-10.56700039"
"5492","Playa Samara/Carrillo Airport","Carrillo","Costa Rica","PLD","9.870510101","-85.48139954"
"9428","Northeastern Regional Airport","Edenton","United States","EDE","36.02769852","-76.56710052"
"1595","Humberto Delgado Airport (Lisbon Portela Airport)","Lisbon","Portugal","LIS","38.7813","-9.13592"
"1196","Adolfo Suárez Madrid–Barajas Airport","Madrid","Spain","MAD","40.471926","-3.56264"
"10411","Bontang Airport","","Indonesia","BXT","0.119691","117.474998"
"10046","Espinosa Airport","","Brazil","ESI","-14.93369444","-42.81"
"2145","Palmyra Airport","Palmyra","Syria","PMS","34.5574","38.316898"
"2688","Carora Airport","Carora","Venezuela","VCR","10.17560291","-70.06521606"
"2956","Wattay International Airport","Vientiane","Laos","VTE","17.98830032","102.5630035"
"10373","Ngloram Airport","","Indonesia","CPF","-7.194841667","111.5481667"
"9268","Princeton Airport","Montgomery","United States","PCT","40.39920044","-74.6588974"
"9394","Decorah Municipal Airport","Decorah","United States","DEH","43.27550125","-91.73940277"
"8138","  Pacific Harbour / Deuba","Pacific Harbour","Fiji","PHR","-18.257","178.068"
"1378","Le Mans-Arnage Airport","Le Mans","France","LME","47.94860077","0.201666996"
"364","Essen Mulheim Airport","Essen","Germany","ESS","51.40230179","6.937329769"
"9160","Candala Airport","Qandala","Somalia","CXN","11.494","49.9085"
"6415","Bromont (Roland Desourdy) Airport","Bromont","Canada","ZBM","45.29079819","-72.74140167"
"5685","Delta Municipal Airport","Delta","United States","DTA","39.38059998","-112.5080032"
"9393","Tioga Municipal Airport","Tioga","United States","VEX","48.38050079","-102.8980026"
"102","Southport Airport","Portage-la-prairie","Canada","YPG","49.903099","-98.273817"
"10314","La Guaira Airport","Ciudad Caribia","Venezuela","LAG","10.53332996","-67.03333282"
"6771","General WM J Fox Airfield","Lancaster","United States","WJF","34.74110031","-118.2190018"
"4896","Devonport Airport","Devonport","Australia","DPO","-41.16970062","146.4299927"
"8339","Tynda","","","TYD","55.17","124.4642"
"3534","Ontario International Airport","Ontario","United States","ONT","34.05599976","-117.6009979"
"6350","Orang Airport","Chongjin","North Korea","RGO","41.428538","129.647555"
"5659","Mosul International Airport","Mosul","Iraq","OSM","36.305801","43.1474"
"3961","Paros National Airport","Paros","Greece","PAS","37.020495","25.113195"
"2205","Fukue Airport","Fukue","Japan","FUJ","32.66630173","128.8329926"
"7373","Grundarfjörður Airport","Grundarfjordur","Iceland","GUU","64.99140167","-23.22470093"
"3177","Nanning Wuxu Airport","Nanning","China","NNG","22.60829926","108.1719971"
"622","Andøya Airport","Andoya","Norway","ANX","69.29250336","16.14419937"
"1727","General Juan N Alvarez International Airport","Acapulco","Mexico","ACA","16.75709915","-99.7539978"
"5710","Santa Ana Airport","Santa Ana","Solomon Islands","NNB","-10.847994","162.454108"
"9688","Newton Municipal Airport","Newton","United States","TNU","41.67440033","-93.021698"
"10286","Severo-Evensk Airport","Evensk","Russia","SWV","61.921786","159.229059"
"1095","Egal International Airport","Hargeisa","Somalia","HGA","9.518170357","44.08879852"
"4903","Griffith Airport","Griffith","Australia","GFF","-34.25080109","146.0670013"
"9350","Bartlesville Municipal Airport","Bartlesville","United States","BVO","36.76250076","-96.01119995"
"8400","Ottawa Rail CA","Ottawa","Canada","XDS","45.415","-75.651"
"10172","Antônio Guerreiro Airport","","Brazil","GMS","-2.109444","-44.651114"
"8990","Ankaizina Airport","Ambatoria","Madagascar","WBE","-14.544277","48.691413"
"1486","Turin Airport","Torino","Italy","TRN","45.200802","7.64963"
"6724","Cable Airport","Upland","United States","CCB","34.11159897","-117.6880035"
"5003","Bayankhongor Airport","Bayankhongor","Mongolia","BYN","46.16329956","100.7040024"
"3626","Mc Allen Miller International Airport","Mcallen","United States","MFE","26.17580032","-98.23860168"
"4379","Alula Airport","Alula","Somalia","ALU","11.9582","50.748"
"3484","Mc Clellan Airfield","Sacramento","United States","MCC","38.66759872","-121.401001"
"7935","JEQUIE","","Brazil","JEQ","-13.8767","-40.0714"
"8118","BAN HUOEISAY","Huay Xai","Laos","OUI","20.2583","100.4333"
"4765","Aleknagik / New Airport","Aleknagik","United States","WKK","59.2826004","-158.6179962"
"1857","Abel Santamaria Airport","Santa Clara","Cuba","SNU","22.49220085","-79.94360352"
"7117","Teruel Airport","Teruel","Spain","TEV","40.403","-1.2183"
"153","Norman Wells Airport","Norman Wells","Canada","YVQ","65.28160095","-126.7979965"
"6791","Dongji Aiport","Fuyuan","China","FYJ","48.199494","134.366447"
"902","Morondava Airport","Morondava","Madagascar","MOQ","-20.28470039","44.31760025"
"2241","Yamagata Airport","Yamagata","Japan","GAJ","38.41189957","140.3710022"
"3568","New Orleans NAS JRB/Alvin Callender Field","New Orleans","United States","NBG","29.82530022","-90.03500366"
"3911","Joint Base Balad","Al Bakr","Iraq","XQC","33.94020081","44.36159897"
"5203","Allakaket Airport","Allakaket","United States","AET","66.55180359","-152.621994"
"4483","Banja Luka International Airport","Banja Luka","Bosnia and Herzegovina","BNX","44.94139862","17.29750061"
"6953","Fuyun Koktokay Airport","Fuyun","China","FYN","46.804169","89.512006"
"5048","Mount Keith Airport","Mount Keith","Australia","WME","-27.28639984","120.5550003"
"173","Abbotsford Airport","Abbotsford","Canada","YXX","49.02529907","-122.3610001"
"9977","Garaina Airport","Garaina","Papua New Guinea","GAR","-7.875625027","147.1412659"
"5663","Aguni Airport","Aguni","Japan","AGJ","26.59250069","127.2409973"
"2835","Kurumoch International Airport","Samara","Russia","KUF","53.50490189","50.16429901"
"6620","Plínio Alarcom Airport","Tres Lagoas","Brazil","TJL","-20.75419998","-51.68420029"
"8872","Diebougou Airport","Diebougou","Burkina Faso","XDE","10.94999981","-3.25"
"3210","Noto Airport","Wajima","Japan","NTQ","37.29309845","136.9620056"
"8522","Pine Island Airport","Corolla","United States","DUF","36.25350189","-75.78849792"
"4736","Komsomolsk-on-Amur Airport","Komsomolsk-on-Amur","Russia","KXK","50.4090004","136.9340057"
"4967","Wiluna Airport","Wiluna","Australia","WUN","-26.62919998","120.2210007"
"6632","Shreveport Downtown Airport","Shreveport","United States","DTN","32.54019928","-93.74500275"
"6460","Busselton Regional Airport","Brusselton","Australia","BQB","-33.68842316","115.4015961"
"6873","Karl Stefan Memorial Airport","Norfolk  Nebraska","United States","OFK","41.98550034","-97.43509674"
"50","Estevan Airport","Estevan","Canada","YEN","49.21030045","-102.9660034"
"1944","Hokitika Airfield","Hokitika","New Zealand","HKK","-42.71360016","170.9850006"
"9897","Taharoa Aerodrome","Taharoa","New Zealand","THH","-38.18109894","174.7079926"
"4752","Kotlas Airport","Kotlas","Russia","KSZ","61.2358017","46.69749832"
"848","Virginia Airport","Durban","South Africa","VIR","-29.77059937","31.0583992"
"4860","Sintang(Susilo) Airport","Sintang-Borneo Island","Indonesia","SQG","0.063619003","111.4729996"
"8529","Marlboro Airport","Marlborough","United States","MXG","42.343201","-71.509002"
"9559","Petit Jean Park Airport","Morrilton","United States","MPJ","35.138901","-92.909202"
"1923","Moorea Airport","Moorea","French Polynesia","MOZ","-17.49","-149.761993"
"3953","Bajhang Airport","Bajhang","Nepal","BJH","29.53899956","81.18540192"
"8897","Méndez Airport","Chupianza","Ecuador","MZD","-2.733330011","-78.3167038"
"9386","Z M Jack Stell Field","Bovine","United States","CRT","33.17829895","-91.88020325"
"3937","John Murtha Johnstown Cambria County Airport","Johnstown","United States","JST","40.31610107","-78.83390045"
"6277","Dikson Airport","Dikson","Russia","DKS","73.51780701","80.37966919"
"161","Wrigley Airport","Wrigley","Canada","YWY","63.20940018","-123.4369965"
"172","London Airport","London","Canada","YXU","43.035599","-81.1539"
"6749","Yeysk Airport","Eysk","Russia","EIK","46.68","38.21"
"2025","Abadan Airport","Abadan","Iran","ABD","30.37109947","48.22829819"
"4097","Usinsk Airport","Usinsk","Russia","USK","66.00469971","57.36719894"
"498","London City Airport","London","United Kingdom","LCY","51.505299","0.055278"
"8276","CHITOSE","Chitose","Japan","SPK","42.7944","141.6664"
"8785","Taltheilei Narrows Airport","","","GSL","62.59809875","-111.5429993"
"1091","Lalibella Airport","Lalibella","Ethiopia","LLI","11.97500038","38.97999954"
"773","Alexander Bay Airport","Alexander Bay","South Africa","ALJ","-28.575001","16.5333"
"99","Ottawa Macdonald-Cartier International Airport","Ottawa","Canada","YOW","45.32249832","-75.66919708"
"1991","Al Baha Airport","El-baha","Saudi Arabia","ABT","20.29610062","41.63430023"
"185","Churchill Airport","Churchill","Canada","YYQ","58.73920059","-94.06500244"
"10101","Barranca De Upia Airport","","Colombia","BAC","4.583333","-72.966667"
"2758","Canouan Airport","Canouan Island","Saint Vincent and the Grenadines","CIW","12.699","-61.3424"
"980","Buffalo Range Airport","Chiredzi","Zimbabwe","BFO","-21.008101","31.5786"
"9792","Jicalapa Airport","Jicalapa","Honduras","GUO","15.006111","-86.049164"
"5748","Rocky Mount Wilson Regional Airport","Rocky Mount","United States","RWI","35.85630035","-77.89189911"
"2204","Yakushima Airport","Yakushima","Japan","KUM","30.38559914","130.6589966"
"4182","Tête-à-la-Baleine Airport","Tête-à-la-Baleine","Canada","ZTB","50.67440033","-59.38359833"
"9345","Britton Municipal Airport","Britton","United States","TTO","45.81520081","-97.74310303"
"95","Matagami Airport","Matagami","Canada","YNM","49.76169968","-77.80280304"
"7875","  Hayman Island","","","HIS","-20.06","148.8814"
"1245","Biarritz-Anglet-Bayonne Airport","Biarritz-bayonne","France","BIQ","43.4683333","-1.5311111"
"3320","Campbell AAF (Fort Campbell) Air Field","Hopkinsville","United States","HOP","36.66859818","-87.49620056"
"5563","Tsletsi Airport","Djelfa","Algeria","QDJ","34.6657","3.351"
"3826","The Eastern Iowa Airport","Cedar Rapids","United States","CID","41.88470078","-91.71080017"
"3965","Francisco B. Reyes Airport","Busuanga","Philippines","USU","12.12150002","120.0999985"
"10007","Siocon Airport","Siocon","Philippines","XSO","7.710481328","122.1611881"
"899","Miandrivazo Airport","Miandrivazo","Madagascar","ZVA","-19.56279945","45.45080185"
"4113","Tuscaloosa Regional Airport","Tuscaloosa AL","United States","TCL","33.22060013","-87.61139679"
"3475","Sawyer International Airport","Gwinn","United States","MQT","46.35359955","-87.395401"
"5140","Leon Airport","Leon","Spain","LEN","42.5890007","-5.655560017"
"227","Zenata – Messali El Hadj Airport","Tlemcen","Algeria","TLM","35.01670074","-1.450000048"
"9257","Columbia County Airport","","United States","HCC","42.29130173","-73.71029663"
"8484","Munich Rail (DE)","München","Germany","ZMU","48.1394","11.5609"
"3494","Altoona Blair County Airport","Altoona","United States","AOO","40.29639816","-78.31999969"
"6567","Newton City-County Airport","Newton","United States","EWK","38.05820084","-97.27449799"
"3505","Molokai Airport","Molokai","United States","MKK","21.1529007","-157.095993"
"7630","Seldovia Airport","Seldovia","United States","SOV","59.44240189","-151.7039948"
"10359","Ubrub Airport","","Indonesia","UBR","-3.67565","140.8838"
"2940","Kota Airport","Kota","India","KTU","25.16020012","75.84559631"
"4043","Cheddi Jagan International Airport","Georgetown","Guyana","GEO","6.498549938","-58.2541008"
"7263","Hay Airport","","Australia","HXX","-34.53139877","144.8300018"
"3066","Pitu Airport","Morotai Island","Indonesia","OTI","2.04598999","128.3249969"
"6998","Matane Airport","Matane","Canada","YME","48.85689926","-67.45330048"
"7421","Oyo Ollombo Airport","Oyo","Congo (Brazzaville)","OLL","-1.226666","15.91"
"10456","Coolah Airport","Coolah","Australia","CLH","-31.77330017","149.6100006"
"2739","Henry E Rohlsen Airport","St. Croix Island","Virgin Islands","STX","17.70190048","-64.79859924"
"7802","Katsina","Katsina","Nigeria","DKA","13.0078","7.6605"
"7400","St. Helena Airport","Longwood","United Kingdom","HLE","-15.957725","-5.645943"
"977","Faya Largeau Airport","Faya-largeau","Chad","FYT","17.91710091","19.11109924"
"10162","Colatina Airport","","Brazil","QCH","-19.48699951","-40.57939911"
"4523","Alberto Delgado Airport","Trinidad","Cuba","TND","21.78829956","-79.99720001"
"8476","XXX","Rennepont","France","ZFJ","48.15","4.85"
"9725","Bukhovtsi Airfield","Targovishte","Bulgaria","TGV","43.30659866","26.70089912"
"2456","João Correa da Rocha Airport","Maraba","Brazil","MAB","-5.368589878","-49.13800049"
"6282","Alldays Airport","Alldays","South Africa","ADY","-22.67900085","29.05550003"
"4972","Yam Island Airport","Yam Island","Australia","XMY","-9.901109695","142.776001"
"390","Donaueschingen-Villingen Airport","Donaueschingen","Germany","ZQL","47.97333145","8.522221565"
"5156","Buffalo Spring","Samburu South","Kenya","UAS","0.530583","37.534195"
"8859","Fada N'gourma Airport","Fada-Ngourma","Burkina Faso","FNG","12.03299999","0.349999994"
"7078","Mc Comb/Pike County Airport/John E Lewis Field","Mc Comb","United States","MCB","31.17849922","-90.47190094"
"10498","Elkedra Airport","","","EKD","-21.17250061","135.4440002"
"579","Eindhoven Airport","Eindhoven","Netherlands","EIN","51.45009995","5.374529839"
"9763","Ponikve Airport","Zlodol","Serbia","UZC","43.898899","19.697701"
"1171","Osijek Airport","Osijek","Croatia","OSI","45.46269989","18.81019974"
"1193","Ibiza Airport","Ibiza","Spain","IBZ","38.8728981","1.37311995"
"3033","Heho Airport","Heho","Burma","HEH","20.74699974","96.79199982"
"3307","Luke Air Force Base","Phoenix","United States","LUF","33.53499985","-112.3830032"
"10402","Keluang Airport","","Indonesia","KLQ","-2.623529911","103.9550018"
"4953","Portland Airport","Portland","Australia","PTJ","-38.31809998","141.470993"
"2868","Batticaloa Airport","Batticaloa","Sri Lanka","BTC","7.70576","81.678802"
"5037","Qiemo Yudu Airport","Qiemo","China","IQM","38.233611","85.465556"
"6454","Alameda Naval Air Station","Alameda","United States","NGZ","37.78889847","-122.3199997"
"51","Edson Airport","Edson","Canada","YET","53.57889938","-116.4649963"
"2066","Shahroud Airport","Emam Shahr","Iran","RUD","36.4253006","55.10419846"
"8960","Bakouma Airport","Bakouma","Central African Republic","BMF","5.693999767","22.8010006"
"4061","Valan Airport","Honningsvag","Norway","HVG","71.00969696","25.98360062"
"6446","Zafer Airport","Kutahya","Turkey","KZR","39.113079","30.128111"
"2820","Turkmenbashi Airport","Krasnovodsk","Turkmenistan","KRW","40.063301","53.007198"
"39","Clyde River Airport","Clyde River","Canada","YCY","70.48609924","-68.51670074"
"9455","Fillmore Municipal Airport","Fillmore","United States","FIL","38.95830154","-112.362999"
"5846","Lewis University Airport","Lockport","United States","LOT","41.6072998","-88.09619904"
"5599","Huizhou Airport","Huizhou","China","HUZ","23.04999924","114.5999985"
"2447","Presidente Castro Pinto International Airport","Joao Pessoa","Brazil","JPA","-7.145833015","-34.94861221"
"7707","Alitak","Akhiok","United States","ALZ","56.8958","-154.2458"
"9159","Haibei Qilian Airport","Haibei Zangzuzizhizhou","China","HBQ","38.012","100.644"
"313","Zoersel (Oostmalle) Airfield","Zoersel","Belgium","OBL","51.264702","4.75333"
"8173","Freiburg Stn. (DE)","Freiburg Im Breisgau","Germany","QFB","48.01","7.82"
"1525","Perugia San Francesco d'Assisi – Umbria International Airport","Perugia","Italy","PEG","43.095901","12.5132"
"5683","Provo Municipal Airport","Provo","United States","PVU","40.21920013","-111.7229996"
"10430","Aramac Airport","Aramac","Australia","AXC","-22.9666996","145.2420044"
"4081","Oslo, Fornebu Airport","Oslo","Norway","FBU","59.89580154","10.6171999"
"3995","Aklavik/Freddie Carmichael Airport","Aklavik","Canada","LAK","68.223297","-135.00599"
"6673","Toowoomba Wellcamp Airport","Toowoomba","Australia","WTB","-27.558332","151.793335"
"8218","Aappilattoq Nanortalik Heliport","Aappilattoq","Greenland","QUV","60.1519","-44.2881"
"1074","Fria Airport","Fira","Guinea","FIG","10.35060024","-13.56919956"
"7298","Rajiv Gandhi International Airport","Hyderabad","India","HYD","17.23131752","78.42985535"
"10676","Hazyview Airport","Hazyview","South Africa","HZV","-25.05010033","31.13190079"
"3641","Fort Dodge Regional Airport","Fort Dodge","United States","FOD","42.55149841","-94.19259644"
"7176","Coveñas Airport","Coveñas","Colombia","CVE","9.40092","-75.6913"
"10219","Armando Schwarck Airport","Los Pijiguaos","Venezuela","LPJ","6.578050137","-66.81690216"
"572","RAF Marham","Marham","United Kingdom","KNF","52.648395","0.550692"
"1643","Antalya International Airport","Antalya","Turkey","AYT","36.898701","30.800501"
"10548","Kalpowar Airport","","","KPP","-14.89","144.22"
"1881","Staniel Cay Airport","Staniel Cay","Bahamas","TYM","24.16909981","-76.43910217"
"41","Dawson City Airport","Dawson","Canada","YDA","64.04309845","-139.128006"
"1782","Los Cabos International Airport","San Jose Del Cabo","Mexico","SJD","23.15180016","-109.7210007"
"6670","Lindu Airport","Yinchun","China","LDS","47.75205556","129.019125"
"5462","Natuashish Airport","Natuashish","Canada","YNP","55.913898","-61.184399"
"3028","Tan Son Nhat International Airport","Ho Chi Minh City","Vietnam","SGN","10.81879997","106.6520004"
"5068","Unst Airport","Unst","United Kingdom","UNT","60.74720001","-0.853850007"
"9892","Kaikohe Airport","Kaikohe","New Zealand","KKO","-35.4510994","173.8170013"
"3856","Funafuti International Airport","Funafuti","Tuvalu","FUN","-8.525","179.195999"
"4749","Solovki Airport","Solovetsky Islands","Russia","CSH","65.02999878","35.73333359"
"5464","Kangiqsujuaq (Wakeham Bay) Airport","Kangiqsujuaq","Canada","YWB","61.58860016","-71.92939758"
"7805","DINDER/GALEGU","Sueida","Sudan","DNX","12.5333","35.0583"
"4466","Quincy Regional Baldwin Field","Quincy","United States","UIN","39.94269943","-91.19460297"
"7137","King Salman Abdulaziz Airport","","Saudi Arabia","DWD","24.4499","44.121201"
"7182","Juan Simons Vela Airport","Rioja","Peru","RIJ","-6.067860126","-77.16000366"
"8594","Cresswell Downs Airport","","","CSD","-17.94799995","135.9160004"
"8448","LA TUQUE","","","YLQ","47.4097","-72.7889"
"35","Charlo Airport","Charlo","Canada","YCL","47.990799","-66.330299"
"10000","Paiela Airport","Orei","Papua New Guinea","PLE","-5.3725","142.9761111"
"4121","Ngorangora Airport","Kirakira","Solomon Islands","IRA","-10.44970036","161.897995"
"2966","Bellary Airport","Bellary","India","BEP","15.16279984","76.88279724"
"3831","Rochester International Airport","Rochester","United States","RST","43.90829849","-92.5"
"7044","Mangochi Airport","Mangochi","Malawi","MAI","-14.4829998","35.26699829"
"5368","Unalakleet Airport","Unalakleet","United States","UNK","63.88840103","-160.798996"
"3773","Socotra International Airport","Socotra","Yemen","SCT","12.63070011","53.90579987"
"10574","Miles Airport","Miles","Australia","WLE","-26.80830002","150.1750031"
"3720","Selaparang Airport","Mataram","Indonesia","AMI","-8.560709953","116.0950012"
"3883","Victoria Harbour Seaplane Base","Victoria","Canada","YWH","48.42498589","-123.3888674"
"2695","Elorza Airport","Elorza","Venezuela","EOZ","7.083333015","-69.53333282"
"9875","Naoro Airport","Naoro","Papua New Guinea","NOO","-9.254455","147.621352"
"369","Dortmund Airport","Dortmund","Germany","DTM","51.5182991","7.612239838"
"3557","Randolph Air Force Base","San Antonio","United States","RND","29.52969933","-98.27890015"
"4326","Port Bergé Airport","Port Bergé","Madagascar","WPB","-15.584286","47.623587"
"9818","Makini Airport","Mawaning","Papua New Guinea","MPG","-6.532222222","147.6511667"
"10485","Daly River Airport","Nauiyu","Australia","DVR","-13.7498064","130.6938782"
"3830","Appleton International Airport","Appleton","United States","ATW","44.2580986","-88.51909637"
"9318","Austin Municipal Airport","Austin","United States","AUM","43.66500092","-92.93340302"
"10088","San Luis De Palenque Airport","","Colombia","SQE","5.400181","-71.7001"
"3871","Ekati Airport","Ekati","Canada","YOA","64.69889832","-110.6149979"
"1930","Lifou Airport","Lifou","New Caledonia","LIF","-20.77479935","167.2400055"
"5051","Connemara Regional Airport","Indreabhan","Ireland","NNR","53.2303009","-9.467780113"
"7019","Pincher Creek Airport","Pincher Creek","Canada","WPC","49.52059937","-113.9970016"
"1370","La Baule-Escoublac Airport","La Baule","France","LBY","47.28939819","-2.346390009"
"6929","Mason County Airport","Ludington","United States","LDM","43.96250153","-86.40789795"
"3686","Naha Airport","Naha","Indonesia","NAH","3.683209896","125.5279999"
"4989","Zhanjiang Airport","Zhanjiang","China","ZHA","21.214399","110.358002"
"2553","Reales Tamarindos Airport","Portoviejo","Ecuador","PVO","-1.041650057","-80.47219849"
"2157","Henderson Field","Midway","Midway Islands","MDY","28.20170021","-177.3809967"
"9077","Kinkungwa Airport","Kinkungwa","Democratic Republic Of The Congo","KLY","-2.578000069","26.73399925"
"10634","Spring Creek Airport","Conjuboy","Australia","SCG","-18.63330078","144.5670013"
"8487","Turin Bus IT","Torino","Italy","ZTC","45.06","7.66"
